,name,street,city,state,zip,phone,reviews,rating,priceRange,Latitude,Longitude,County,Country,twitter_sentiment
0,A Baked Joint,440 K St NW,Washington,DC,20001,(202) 408-6985,492.0,4.5,10.0,38.902281,-77.01745799999998,District of Columbia,US,[0.0]
1,Wicked Waffle,1712 I St NW,Washington,DC,20006,(202) 944-2700,652.0,4.0,10.0,38.901136,-77.04006899999997,District of Columbia,US,[1.5909090909090908]
2,Moxie’s,1020 19th St NW,Washington,DC,20036,(202) 846-1479,36.0,4.5,10.0,38.903176,-77.043808,District of Columbia,US,[1.5909090909090908]
3,Founding Farmers DC,1924 Pennsylvania Ave NW,Washington,DC,20006,(202) 822-8783,8562.0,4.0,20.0,38.90028,-77.044415,District of Columbia,US,[1.5909090909090908]
4,Ted’s Bulletin,505 8th St SE,Washington,DC,20003,(202) 544-8337,1487.0,4.0,20.0,38.882458,-76.995336,District of Columbia,US,[0.0]
5,Highlands,4706 14th St NW,Washington,DC,20011,(202) 829-6200,299.0,4.0,10.0,38.947521,-77.033026,District of Columbia,US,[0.0]
6,Tabard Inn Restaurant,1739 N St NW,Washington,DC,20036,(202) 331-8528,1366.0,4.0,20.0,38.907392,-77.039486,District of Columbia,US,[1.5909090909090908]
7,Old Ebbitt Grill,675 15th St NW,Washington,DC,20005,(202) 347-4800,4956.0,4.0,20.0,38.898056,-77.03332900000002,District of Columbia,US,[1.5909090909090908]
8,Busboys and Poets,2021 14th St NW,Washington,DC,20009,(202) 387-7638,1587.0,4.0,20.0,38.917859,-77.03168000000002,District of Columbia,US,[0.0]
9,Tony’s Breakfast,1387 H St NE,Washington,DC,20002,(202) 397-7750,133.0,4.0,10.0,38.900047,-76.985864,District of Columbia,US,[0.0]
10,City Place Cafe,1101 17th St NW,Washington,DC,20036,(202) 466-4665,121.0,4.5,10.0,38.904048,-77.038129,District of Columbia,US,[1.5909090909090908]
11,Barrel,613 Pennsylvania Ave SE,Washington,DC,20003,(202) 543-3622,413.0,4.0,20.0,38.885008,-76.997915,District of Columbia,US,[0.0]
12,Farmers Fishers Bakers,3000 K St NW,Washington,DC,20007,(202) 298-8783,1804.0,4.0,20.0,38.910369,-77.05939000000002,District of Columbia,US,[0.0]
13,Sidamo Coffee and Tea,417 H St NE,Washington,DC,20002,(202) 548-0081,343.0,4.5,10.0,38.900053,-77.000408,District of Columbia,US,[0.0]
14,Market Lunch,225 7th St SE,Washington,DC,20003,(202) 547-8444,256.0,4.0,20.0,38.886413,-76.99646800000002,District of Columbia,US,[0.0]
15,Pineapple & Pearls,715 8th St SE,Washington,DC,20003,(202) 595-7375,92.0,4.5,40.0,38.8807,-76.99533100000002,District of Columbia,US,[0.0]
16,Lot 38 Espresso Bar,1001 2nd St SE,Washington,DC,20003,(202) 758-0677,144.0,4.5,10.0,38.877729,-77.003692,District of Columbia,US,[0.0]
17,Brick Lane,1636 17th St NW,Washington,DC,20009,(202) 525-5309,96.0,4.0,20.0,38.912333,-77.03879599999998,District of Columbia,US,[0.0]
18,Nerds & Nibblers,1451 L St NW,Washington,DC,20005,(202) 331-3213,59.0,3.5,10.0,38.903952,-77.033951,District of Columbia,US,[1.5909090909090908]
19,Mulebone,2121 14th St NW,Washington,DC,20009,(202) 332-9672,177.0,4.0,20.0,38.918385,-77.03161899999998,District of Columbia,US,[0.0]
20,Birch & Barley,1337 14th St NW,Washington,DC,20005,(202) 567-2576,915.0,4.0,30.0,38.908482,-77.031607,District of Columbia,US,[1.5909090909090908]
21,Busboys and Poets,1025 5th St NW,Washington,DC,20001,(202) 789-2227,993.0,4.0,20.0,38.902815,-77.018704,District of Columbia,US,[0.0]
22,Sunrise Cafe,1102 17th St NW,Washington,DC,20036,(202) 463-0032,103.0,4.0,10.0,38.904107,-77.038752,District of Columbia,US,[1.5909090909090908]
23,Red Derby,3718 14th St NW,Washington,DC,20010,(202) 291-5000,463.0,4.0,10.0,38.937728,-77.03309,District of Columbia,US,[0.0]
24,Bread Furst,4434 Connecticut Ave,Washington,DC,20008,(202) 765-1200,240.0,3.5,20.0,38.947472,-77.065926,District of Columbia,US,[0.0]
25,Creperie,1111 New York Ave NW,Washington,DC,20005,,32.0,4.0,10.0,38.900979,-77.027837,District of Columbia,US,[1.5909090909090908]
26,Beef N Bread,750 6th St NW,Washington,DC,20001,(202) 393-0406,196.0,4.5,10.0,38.899663,-77.020127,District of Columbia,US,[0.0]
27,USDA Cafeteria,1400 Independence Ave S W,Washington,DC,20250,(202) 720-6799,9.0,5.0,10.0,38.886717,-77.030035,District of Columbia,US,[0.0]
28,Carving Room,300 Massachusetts Ave NW,Washington,DC,20001,(202) 525-2116,241.0,4.0,20.0,38.899642,-77.01566600000002,District of Columbia,US,[0.0]
29,Beuchert’s Saloon,623 Pennsylvania Ave SE,Washington,DC,20003,(202) 733-1384,236.0,4.0,20.0,38.88487,-76.997644,District of Columbia,US,[0.0]
30,Bagels Etc.,2122 P Street NW,Washington,DC,20037,(202) 466-7171,251.0,4.0,10.0,38.90940300000001,-77.047626,District of Columbia,US,[0.0]
31,Uni Bistro,403 H St NE,Washington,DC,20002,(202) 675-2011,33.0,4.5,20.0,38.900055,-77.000557,District of Columbia,US,[0.0]
32,Murry & Paul’s Restaurant,3513 12th St NE,Washington,DC,20017,(202) 529-4078,60.0,4.0,10.0,38.932967,-76.99078,District of Columbia,US,[0.0]
33,Sally’s Middle Name,1320 H St NE,Washington,DC,20002,(202) 750-6529,100.0,4.0,30.0,38.90035,-76.98786700000002,District of Columbia,US,[0.0]
34,Bistro Bohem,600 Florida Ave NW,Washington,DC,20001,(202) 735-5895,263.0,4.0,20.0,38.915379,-77.020199,District of Columbia,US,[0.0]
35,Cafe Carvy,1020 19th St NW,Washington,DC,20036,(202) 223-1981,71.0,4.0,10.0,38.903176,-77.043808,District of Columbia,US,[1.5909090909090908]
36,Pleasant Pops,731 15th St NW,Washington,DC,20005,(202) 347-0938,38.0,4.0,10.0,38.899776,-77.03336800000002,District of Columbia,US,[1.5909090909090908]
37,Tony’s Place,622 Kennedy St NW,Washington,DC,20011,(202) 829-0721,32.0,4.0,10.0,38.956211,-77.021902,District of Columbia,US,[0.0]
38,Jimmy T’s Place,501 E Capitol St SE,Washington,DC,20003,,151.0,4.0,10.0,38.889506,-76.999307,District of Columbia,US,[0.0]
39,Universal Doughnuts,2012 T St NW,Washington,DC,20009,(202) 483-0600,27.0,4.0,10.0,38.9156,-77.045027,District of Columbia,US,[0.0]
40,The Riggsby,1731 New Hampshire Ave NW,Washington,DC,20009,(202) 787-1500,143.0,4.0,30.0,38.91334000000001,-77.03947099999998,District of Columbia,US,[0.0]
41,Bethesda Bagels,1718 Connecticut Ave NW,Washington,DC,20009,(202) 299-9399,295.0,4.0,10.0,38.913191,-77.045897,District of Columbia,US,[0.0]
42,Cafe Kimchi,751 8th St SE,Washington,DC,20003,(202) 847-3269,114.0,4.0,10.0,38.879568,-76.995227,District of Columbia,US,[0.0]
43,Pete’s Diner,212 2nd St SE,Washington,DC,20003,(202) 544-7335,204.0,3.5,10.0,38.886989,-77.003312,District of Columbia,US,[0.0]
44,Belga Cafe,514 8th St SE,Washington,DC,20003,(202) 544-0100,877.0,3.5,20.0,38.882204,-76.99460400000002,District of Columbia,US,[0.0]
45,Firefly,1310 New Hampshire Ave NW,Washington,DC,20036,(202) 861-1310,855.0,3.5,20.0,38.907633,-77.045754,District of Columbia,US,[1.5909090909090908]
46,The Lafayette,800 16th St NW,Washington,DC,20006,(202) 638-2570,57.0,4.0,40.0,38.900525,-77.036957,District of Columbia,US,[1.5909090909090908]
47,Commissary,1443 P St NW,Washington,DC,20005,(202) 299-0018,803.0,3.5,20.0,38.909812,-77.033495,District of Columbia,US,[1.5909090909090908]
48,Cafe Deluxe,3228 Wisconsin Ave Nw,Washington,DC,20016,(202) 686-2233,272.0,3.5,20.0,38.933136,-77.07288,District of Columbia,US,[0.0]
49,Level One,1639 R St NW,Washington,DC,20009,(202) 745-0025,310.0,3.5,20.0,38.912798,-77.038191,District of Columbia,US,[0.0]
50,Uptowner Cafe,2400 M St NW,Washington,DC,20037,(202) 775-0520,85.0,3.5,10.0,38.905065,-77.05170799999998,District of Columbia,US,[0.0]
51,BlackSalt,4883 MacArthur Blvd NW,Washington,DC,20007,(202) 342-9101,748.0,4.0,30.0,38.917788,-77.096609,District of Columbia,US,[0.0]
52,The Coupe,3415 11th St NW,Washington,DC,20010,(202) 290-3342,676.0,3.5,20.0,38.932442,-77.02821899999998,District of Columbia,US,[0.0]
53,Martin’s Tavern,1264 Wisconsin Ave NW,Washington,DC,20007,(202) 333-7370,393.0,3.5,20.0,38.906742,-77.06321899999998,District of Columbia,US,[0.0]
54,Pansaari,1603 17th St NW,Washington,DC,20009,(202) 847-0115,105.0,4.0,20.0,38.911387,-77.038236,District of Columbia,US,[0.0]
55,"Red, White and Basil",1781 Florida Ave NW,Washington,DC,20009,(202) 839-3068,109.0,3.5,20.0,38.91748,-77.040894,District of Columbia,US,[0.0]
56,Galley Cafe,1625 Massachusetts Ave NW,Washington,DC,20036,(202) 939-0263,18.0,4.5,10.0,38.908135,-77.03800600000002,District of Columbia,US,[1.5909090909090908]
57,Coppi’s Organic Restaurant,3321 Connecticut Ave NW,Washington,DC,20008,(202) 966-0770,74.0,4.0,20.0,38.934166,-77.05723499999998,District of Columbia,US,[0.0]
58,Osman & Joe’s Steak ‘n Egg Kitchen,4700 Wisconsin Ave NW,Washington,DC,20016,(202) 686-1201,303.0,3.5,10.0,38.951206,-77.081124,District of Columbia,US,[0.0]
59,Kramerbooks & Afterwords Cafe,1517 Connecticut Ave NW,Washington,DC,20036,(202) 387-1462,1476.0,3.5,20.0,38.910818,-77.043816,District of Columbia,US,[0.0]
60,Scion Restaurant,2100 P St Nw,Washington,DC,20037,(202) 833-8899,572.0,3.5,20.0,38.909498,-77.046988,District of Columbia,US,[0.0]
61,Pret A Manger,"1825 Eye Street, NW",Washington,DC,20006,(202) 403-2992,158.0,4.0,10.0,38.897131,-77.041248,District of Columbia,US,[1.5909090909090908]
62,NuVegan Café,2928 Georgia Ave NW,Washington,DC,20001,(202) 232-1700,587.0,4.5,20.0,38.927817,-77.02343499999998,District of Columbia,US,[0.0]
63,Bread & Chocolate,2301 M St NW,Washington,DC,20037,(202) 833-8360,205.0,3.0,20.0,38.905475,-77.050352,District of Columbia,US,[0.0]
64,Slim’s Diner,4201 Georgia Ave NW,Washington,DC,20011,(202) 783-0699,138.0,3.0,20.0,38.942039,-77.025317,District of Columbia,US,[0.0]
65,Firehook Bakery,215 Pennsylvania Ave SE,Washington,DC,20003,(888) 580-0745,75.0,3.5,10.0,38.887089,-77.00286,District of Columbia,US,[0.0]
66,Station 4,1101 4th St SW,Washington,DC,20024,(202) 488-0987,491.0,3.0,20.0,38.877602,-77.01815,District of Columbia,US,[0.0]
67,Policy,1904 14th St NW,Washington,DC,20009,(202) 387-7654,589.0,3.5,20.0,38.915769,-77.032189,District of Columbia,US,[0.0]
68,Busboys and Poets,625 Monroe St NE,Washington,DC,20017,(202) 636-7230,113.0,3.5,20.0,38.932057,-76.99704100000002,District of Columbia,US,[0.0]
69,Et Voila,5120 MacArthur Blvd NW,Washington,DC,20016,(202) 237-2300,175.0,4.0,30.0,38.925435,-77.10231800000003,District of Columbia,US,[0.0]
70,Café du Parc,1401 Pennsylvania Ave NW,Washington,DC,20004,(202) 942-7000,244.0,3.5,30.0,38.896492,-77.03234499999998,District of Columbia,US,[1.5909090909090908]
71,Kapnos,2201 14th St NW,Washington,DC,20009,(202) 234-5000,546.0,4.0,30.0,38.919337,-77.031501,District of Columbia,US,[0.0]
72,Ardeo + Bardeo,3311 Connecticut Ave NW,Washington,DC,20008,(202) 244-6750,395.0,3.5,30.0,38.933915,-77.057091,District of Columbia,US,[0.0]
73,Luna Grill & Diner,1301 Connecticut Ave NW,Washington,DC,20036,(202) 835-2280,429.0,3.5,20.0,38.907611,-77.041963,District of Columbia,US,[1.5909090909090908]
74,Range,5335 Wisconsin Ave NW,Washington,DC,20015,(202) 803-8020,616.0,3.5,30.0,38.960125,-77.08484399999998,District of Columbia,US,[0.0]
75,Crepe Lena,40 Massachusetts Ave NE,Washington,DC,20002,(571) 331-3926,38.0,3.5,10.0,38.897611,-77.007153,District of Columbia,US,[0.0]
76,Teaism Penn Quarter,400 8th St NW,Washington,DC,20004,(202) 638-6010,625.0,3.5,20.0,38.89503,-77.02323299999998,District of Columbia,US,[0.0]
77,Bullfrog Bagels,1341 H St NE,Washington,DC,20002,(202) 494-5615,119.0,3.5,10.0,38.900049,-76.987264,District of Columbia,US,[0.0]
78,Le Pain Quotidien - Georgetown,2815 M St NW,Washington,DC,20007,(202) 315-5420,299.0,3.5,20.0,38.90547,-77.05756,District of Columbia,US,[0.0]
79,Cafe Lombardy,2019 Pennsylvania Ave NW,Washington,DC,20006,(202) 828-2600,15.0,4.0,20.0,38.90153,-77.045918,District of Columbia,US,[1.5909090909090908]
80,Beacon Bar and Grill,1615 Rhode Island Ave NW,Washington,DC,20036,(202) 753-4378,589.0,3.5,20.0,38.907049,-77.03805,District of Columbia,US,[1.5909090909090908]
81,Greek Deli & Catering,1120 19th St NW,Washington,DC,20036,(202) 296-2111,446.0,4.5,10.0,38.904548,-77.04385699999997,District of Columbia,US,[1.5909090909090908]
82,Boxcar Tavern,224 7th St SE,Washington,DC,20003,(202) 544-0518,157.0,3.5,20.0,38.88655,-76.995906,District of Columbia,US,[0.0]
83,Pret A Manger,1432 K Street NW,Washington,DC,20533,(202) 559-8000,59.0,4.0,10.0,38.902281,-77.03339100000002,District of Columbia,US,[1.5909090909090908]
84,Busboys and Poets,235 Carroll St NW,Washington,DC,20012,(202) 726-0856,101.0,3.5,20.0,38.975124,-77.015375,District of Columbia,US,[0.0]
85,Graffiato,707 6th St NW,Washington,DC,20001,(202) 289-3600,1310.0,3.5,30.0,38.898676,-77.01958,District of Columbia,US,[0.0]
86,Pimento Grill,4405 Bowen Rd SE,Washington,DC,20019,(202) 582-6595,138.0,4.0,20.0,38.87331,-76.935316,District of Columbia,US,[0.0]
87,Creme Restaurant and Bar,2436 14th St NW,Washington,DC,20009,(202) 234-1884,95.0,3.5,20.0,38.92145,-77.032169,District of Columbia,US,[0.0]
88,Bidwell,1309 5th St NE,Washington,DC,20002,(202) 547-0172,169.0,3.5,20.0,38.908716,-76.99765,District of Columbia,US,[0.0]
89,First Cup Cafe,900 M Street NW,Washington,DC,20001,(202) 289-4601,113.0,3.0,10.0,38.905429,-77.024153,District of Columbia,US,[0.0]
90,L’Hommage Bistro Francais,450 K St NW,Washington,DC,20001,(202) 791-0916,105.0,3.5,20.0,38.902274,-77.017966,District of Columbia,US,[0.0]
91,Madhatter,1319 Connecticut Ave NW,Washington,DC,20036,(202) 833-1495,751.0,3.0,20.0,38.907904,-77.041978,District of Columbia,US,[1.5909090909090908]
92,Veloce by Pizzeria Paradiso,1828 L St NW,Washington,DC,20036,(202) 290-1910,41.0,4.0,10.0,38.903512,-77.04294,District of Columbia,US,[1.5909090909090908]
93,Pret A Manger,50 Massachusetts Avenue,Washington,DC,20002,(202) 289-0186,67.0,4.0,10.0,38.897538,-77.006179,District of Columbia,US,[0.0]
94,Chupacabra,822 H St NE,Washington,DC,20002,(202) 505-4628,130.0,3.5,20.0,38.900353,-76.99475,District of Columbia,US,[0.0]
95,Cafe Berlin,322 Massachusetts Ave NE,Washington,DC,20002,(202) 543-7656,281.0,3.5,20.0,38.894448,-77.00093299999997,District of Columbia,US,[0.0]
96,Tony’s Place,1400 Good Hope Rd SE,Washington,DC,20050,(202) 678-6633,7.0,4.5,10.0,38.866944,-76.984937,District of Columbia,US,[0.0]
97,Bar Charley,1825 18th St NW,Washington,DC,20009,(202) 627-2183,194.0,3.5,20.0,38.915033,-77.041434,District of Columbia,US,[0.0]
98,Bourbon Coffee,621 Pennsylvania Ave SE,Washington,DC,20003,(202) 836-4799,42.0,3.5,10.0,38.884898,-76.99768,District of Columbia,US,[0.0]
99,Abe’s Cafe,733 13th St NW,Washington,DC,20005,(202) 791-0307,16.0,3.5,20.0,38.89978,-76.98808299999997,District of Columbia,US,[0.0]
100,Pret A Manger,1828 L St NW,Washington,DC,20006,(202) 689-1982,44.0,4.5,10.0,38.903512,-77.04294,District of Columbia,US,[1.5909090909090908]
101,Pearl Dive Oyster Palace,1612 14th St NW,Washington,DC,20009,(202) 319-1612,620.0,4.0,20.0,38.911625,-77.032287,District of Columbia,US,[0.0]
102,Malmaison,3401 Water St NW,Washington,DC,20007,(202) 817-3340,161.0,3.0,20.0,38.904139,-77.06811,District of Columbia,US,[0.0]
103,Le Pain Quotidien - Dupont Circle,2000 P St NW,Washington,DC,20036,(202) 459-9176,287.0,3.0,20.0,38.909465,-77.04514,District of Columbia,US,[0.0]
104,Mangialardo,1317 Pennsylvania Ave SE,Washington,DC,20003,(202) 543-6212,198.0,4.5,10.0,38.880885,-76.987724,District of Columbia,US,[0.0]
105,The Grilled Oyster Company,3701 Newark St NW,Washington,DC,20016,(202) 362-1719,39.0,4.0,30.0,38.934486,-77.07250400000002,District of Columbia,US,[0.0]
106,Piassa Ethiocuisine & Cafe,1336 9th St NW,Washington,DC,20001,(202) 765-1288,17.0,4.0,20.0,38.908426,-77.02419499999998,District of Columbia,US,[0.0]
107,Sip of Seattle,1120 G St NW,Washington,DC,20001,(202) 393-5058,57.0,4.0,10.0,38.881459,-76.99076099999998,District of Columbia,US,[0.0]
108,Cafe Kindred,450 N Washington St,Falls Church,VA,22046,(571) 327-2215,159.0,4.5,10.0,38.88512,-77.16504499999998,Falls Church city,US,[0.0]
109,J Paul’s,3218 M St NW,Washington,DC,20007,(202) 333-3450,383.0,3.0,20.0,38.904972,-77.063503,District of Columbia,US,[0.0]
110,G Street Food,1030 15th St NW,Washington,DC,20005,(202) 842-8484,88.0,3.5,10.0,38.903412,-77.03496700000002,District of Columbia,US,[1.5909090909090908]
111,RedRocks Columbia Heights,1036 Park Rd NW,Washington,DC,20010,(202) 506-1402,515.0,3.5,20.0,38.931674,-77.028031,District of Columbia,US,[0.0]
112,Le Pain Quotidien - Penn Quarter,975 F St NW,Washington,DC,20004,(202) 499-4123,159.0,3.0,20.0,38.897634,-77.025568,District of Columbia,US,[0.0]
113,Le Pain Quotidien - 17th Street,800 17th St NW,Washington,DC,20006,(202) 688-0341,94.0,3.5,20.0,38.90048,-77.039742,District of Columbia,US,[1.5909090909090908]
114,Cosmo Cafe,600 Maryland Ave SW,Washington,DC,20024,(202) 554-4040,47.0,2.5,20.0,38.885962,-77.021061,District of Columbia,US,[0.0]
115,La Jambe,1550 7th St NW,Washington,DC,20001,(202) 627-2988,35.0,4.5,20.0,38.910356,-77.022189,District of Columbia,US,[0.0]
116,Flying Fish Coffee & Tea,3064 Mt Pleasant St NW,Washington,DC,20009,(202) 299-0141,136.0,3.5,10.0,38.919261,-77.039798,District of Columbia,US,[0.0]
117,Bunna Ethiopian Cafe,1400 L St NW,Washington,DC,20005,(202) 827-4952,27.0,4.5,20.0,38.903447,-77.032391,District of Columbia,US,[1.5909090909090908]
118,Circle Bistro,1 Washington Cir NW,Washington,DC,20037,(202) 293-5390,98.0,3.5,30.0,38.903371,-77.049726,District of Columbia,US,[1.5909090909090908]
119,Pret A Manger,1155 F St,Washington,DC,20004,(202) 464-2791,117.0,3.5,10.0,38.897574,-77.02763399999998,District of Columbia,US,[1.5909090909090908]
120,Bruegger’s Bagels,"505 9th Street, NW",Washington,DC,20004,(202) 393-1663,88.0,3.5,10.0,38.896519,-77.023713,District of Columbia,US,[0.0]
121,Logan Tavern,1423 P St NW,Washington,DC,20005,(202) 332-3710,587.0,3.5,20.0,38.909886,-77.032887,District of Columbia,US,[1.5909090909090908]
122,Stomping Ground,2309 Mount Vernon Ave,Alexandria,VA,22301,(703) 364-8912,201.0,4.0,20.0,38.826552,-77.05856,Alexandria city,US,[0.0]
123,Casey’s Coffee,508 23rd St NW,Washington,DC,20037,(202) 223-4762,36.0,2.5,10.0,38.896517,-77.051038,District of Columbia,US,[0.0]
124,Bob & Edith’s Diner,539 S 23rd St,Arlington,VA,22202,(703) 920-2700,218.0,4.0,10.0,38.853518,-77.054461,Arlington County,US,[0.0]
125,Woodley Cafe,2619 Connecticut Ave NW,Washington,DC,20008,(202) 332-5773,245.0,2.5,20.0,38.924157,-77.05139,District of Columbia,US,[0.0]
126,New World Cafe,720 I St NW,Washington,DC,20001,(202) 842-0045,14.0,3.0,10.0,38.900617,-77.022269,District of Columbia,US,[0.0]
127,Tupelo Honey Cafe,1616 N Troy St,Arlington,VA,22201,(703) 253-8140,535.0,3.5,20.0,38.889515,-77.082786,Arlington County,US,[0.0]
128,Kafe Leopold,3315 Cady's Alley NW,Washington,DC,20007,(202) 965-6005,999.0,3.5,20.0,38.90482,-77.06666899999998,District of Columbia,US,[0.0]
129,Fenton Cafe,8311 Fenton St,Silver Spring,MD,20910,(301) 326-1841,199.0,4.0,10.0,38.99352,-77.02410400000002,Montgomery County,US,[0.0]
130,Fenton Cafe,8311 Fenton St,Silver Spring,MD,20910,(301) 326-1841,199.0,4.0,10.0,38.99352,-77.02410400000002,Montgomery County,US,[0.0]
131,Cafe Cozy Corner,1117 10th St NW,Washington,DC,20001,(202) 842-3040,58.0,3.5,10.0,38.90478,-77.025723,District of Columbia,US,[1.5909090909090908]
132,Twisted Horn,819 Upshur St NW,Washington,DC,20011,(202) 290-1808,19.0,4.0,20.0,38.942135,-77.02415500000002,District of Columbia,US,[0.0]
133,Rumba Cafe,2443 18th St NW,Washington,DC,20009,(202) 588-5501,181.0,3.5,20.0,38.921655,-77.042037,District of Columbia,US,[0.0]
134,Carvings,2021 F St NW,Washington,DC,20006,(202) 994-8844,41.0,3.0,10.0,38.897576,-77.045547,District of Columbia,US,[1.5909090909090908]
135,Smoked & Stacked,1239 9th St NW,Washington,DC,20001,(202) 465-4822,38.0,3.5,20.0,38.906867,-77.023726,District of Columbia,US,[0.0]
136,Bruegger’s Bagels,2334 Wisconsin Ave. NW,Washington,DC,20007,(202) 338-1414,55.0,3.0,10.0,38.920797,-77.072136,District of Columbia,US,[0.0]
137,Kaldi’s Social House,918 Silver Spring Ave,Silver Spring,MD,20910,(301) 557-9991,309.0,4.0,10.0,38.991201,-77.025711,Montgomery County,US,[0.0]
138,Pumpernickel’s Bagelry & Delicatessen,5504 Connecticut Ave NW,Washington,DC,20015,(202) 244-9505,125.0,3.0,10.0,38.963346,-77.07502099999998,District of Columbia,US,[0.0]
139,Bob & Edith’s Diner,2310 Columbia Pike,Arlington,VA,22204,(703) 920-6103,561.0,4.0,10.0,38.863627,-77.082263,Arlington County,US,[0.0]
140,Country Style Chicken and Waffles,4817 Saint Barnabas Rd,Temple Hills,MD,20748,(240) 532-7969,91.0,4.0,10.0,38.823735,-76.951702,Prince George's County,US,[0.0]
141,Au Bon Pain,1401 I St NW,Washington,DC,20005,(202) 842-2467,44.0,3.5,10.0,38.901666,-77.032422,District of Columbia,US,[1.5909090909090908]
142,Canal Café,1055 Thomas Jefferson St,Washington,DC,20007,(202) 333-3191,6.0,3.0,,38.903761,-77.059762,District of Columbia,US,[0.0]
143,Open City,2331 Calvert St NW,Washington,DC,20008,(202) 332-2331,1280.0,3.5,20.0,38.923717,-77.052366,District of Columbia,US,[0.0]
144,Java House,1645 Q St NW,Washington,DC,20009,(202) 387-6622,121.0,3.0,10.0,38.911294,-77.038179,District of Columbia,US,[0.0]
145,Dirty Habit,700 F St NW,Washington,DC,20004,(202) 783-6060,22.0,3.5,30.0,38.896988,-77.022463,District of Columbia,US,[0.0]
146,Busboys and Poets,5331 Baltimore Ave,Hyattsville,MD,20781,(301) 779-2787,601.0,4.0,20.0,38.954633,-76.939635,Prince George's County,US,[0.0]
147,Capitol Grounds Coffee,2100 Pennsylvania Ave NW,Washington,DC,20037,(202) 293-2057,28.0,3.0,10.0,38.901035,-77.04720999999998,District of Columbia,US,[1.5909090909090908]
148,Hilton Honors Capital Hilton Executive Lounge,1001 16th Street NW,Washington,DC,20036,(202) 393-1000,2.0,5.0,10.0,38.903122,-77.035933,District of Columbia,US,[1.5909090909090908]
149,Ted’s Bulletin,1818 14th St NW,Washington,DC,20009,(202) 265-8337,889.0,4.0,20.0,38.914742,-77.032279,District of Columbia,US,[0.0]
150,Republic Kolache,410 7th St NW,Washington,DC,20001,(202) 888-2813,12.0,4.0,10.0,38.895166,-77.022204,District of Columbia,US,[0.0]
151,Carlyle,4000 Campbell Ave,Arlington,VA,22206,(703) 931-0777,984.0,4.0,20.0,38.84061,-77.087028,Arlington County,US,[0.0]
152,Buffalo & Bergen,1309 5th St NE,Washington,DC,20002,(202) 543-2549,121.0,3.0,20.0,38.908716,-76.99765,District of Columbia,US,[0.0]
153,Le Grenier,502 H St NE,Washington,DC,20002,(202) 544-4999,356.0,4.0,20.0,38.900353,-76.99949000000002,District of Columbia,US,[0.0]
154,West Wing Cafe,5300 Wisconsin Ave NW,Washington,DC,20015,(202) 659-2233,3.0,3.5,,38.959417,-77.085617,District of Columbia,US,[0.0]
155,DeCarlo’s Restaurant,4822 Yuma St NW,Washington,DC,20016,(202) 363-4220,38.0,3.5,20.0,38.946112,-77.095431,District of Columbia,US,[0.0]
156,Corner Bakery Cafe,777 6th St NW,Washington,DC,20001,(202) 697-5250,85.0,3.0,10.0,38.899488,-77.019643,District of Columbia,US,[0.0]
157,The Class Deli,6415 Chillum Pl NW,Washington,DC,20012,(202) 882-1850,4.0,4.0,,38.967985,-77.012258,District of Columbia,US,[0.0]
158,Pret A Manger,1701 K Street,Washington,DC,20006,(202) 857-7945,61.0,3.5,10.0,38.897131,-77.041248,District of Columbia,US,[1.5909090909090908]
159,Biscuit Lab Baking Company,3720 14th St NW,Washington,DC,20010,,2.0,3.0,,38.93777,-77.033091,District of Columbia,US,[0.0]
160,Pret A Manger,1399 New York Ave,Washington,DC,20005,(202) 393-0533,22.0,4.0,10.0,38.899895,-77.031593,District of Columbia,US,[1.5909090909090908]
161,Fresh Chop Chop,1560 Wilson Blvd,Arlington,VA,22209,(703) 248-0722,17.0,4.5,10.0,38.894026,-77.07640500000002,Arlington County,US,[0.0]
162,White Corner,4401 Southern Ave,Capitol Heights,MD,20743,(301) 420-2010,15.0,4.5,10.0,38.872941,-76.934882,Prince George's County,US,[0.0]
163,Jaco Juice and Taco Bar,1614 Wisconsin Ave NW,Washington,DC,20007,(202) 505-2216,96.0,4.0,10.0,38.911231,-77.065669,District of Columbia,US,[0.0]
164,Fontaine Caffe & Creperie,119 S Royal St,Alexandria,VA,22314,(703) 535-8151,382.0,4.0,20.0,38.804057,-77.043888,Alexandria city,US,[0.0]
165,Timmy’s Place,3835 Pennsylvania Ave SE,Washington,DC,20020,(202) 621-8483,5.0,2.5,,38.865132,-76.951482,District of Columbia,US,[0.0]
166,Tony’s Place,1401 H St NE,Washington,DC,20002,(202) 396-2482,10.0,4.0,10.0,38.900046,-76.98550300000002,District of Columbia,US,[0.0]
167,Lincoln’s Waffle Shop,504 10th St NW,Washington,DC,20004,(202) 638-4008,872.0,3.5,10.0,38.896486,-77.026224,District of Columbia,US,[0.0]
168,Mike’s Cafe,900 N Stuart St,Arlington,VA,22203,(703) 312-7371,120.0,4.0,10.0,38.880725,-77.112172,Arlington County,US,[0.0]
169,Drafting Table,1529 14th St NW,Washington,DC,20005,(202) 621-7475,216.0,3.0,20.0,38.910633,-77.031617,District of Columbia,US,[0.0]
170,Trio Restaurant,1537 17th St NW,Washington,DC,20036,(202) 232-6305,148.0,3.5,20.0,38.91098,-77.038264,District of Columbia,US,[0.0]
171,Waffle Shop,3864 Mount Vernon Ave,Alexandria,VA,22305,(703) 836-8851,82.0,4.0,10.0,38.840258,-77.06304899999998,Alexandria city,US,[0.0]
172,The Liberty Tavern,3195 Wilson Blvd,Arlington,VA,22201,(703) 465-9360,997.0,4.0,20.0,38.886315,-77.09680300000002,Arlington County,US,[0.0]
173,Parkway Deli & Restaurant,8317 Grubb Rd,Silver Spring,MD,20910,(301) 587-1427,469.0,4.0,20.0,38.992693,-77.049758,Montgomery County,US,[0.0]
174,Annie’s Paramount Steak House,1609 17th St NW,Washington,DC,20009,(202) 232-0395,269.0,3.5,20.0,38.911597,-77.038219,District of Columbia,US,[0.0]
175,The Java Shack,2507 Franklin Rd,Arlington,VA,22201,(703) 527-9556,171.0,4.0,10.0,38.890787,-77.08896899999998,Arlington County,US,[0.0]
176,DC Dives,680  Rhode Island Ave NE,Washington,DC,20002,(202) 696-8335,1.0,5.0,10.0,38.922059,-76.996914,District of Columbia,US,[0.0]
177,AllSpice Cafe & Catering,1401 Wilson Blvd,Arlington,VA,22209,(703) 524-4050,55.0,4.0,10.0,38.895533,-77.073587,Arlington County,US,[0.0]
178,Bruegger’s Bagels,2101 L Street NW,Washington,DC,20037,(202) 223-5220,78.0,3.0,10.0,38.904003,-77.04688,District of Columbia,US,[1.5909090909090908]
179,Busboys and Poets,4251 S Campbell Ave,Arlington,VA,22206,(703) 379-9757,799.0,3.5,20.0,38.841214,-77.089597,Arlington County,US,[0.0]
180,Palette 22,4053 Campbell Ave,Arlington,VA,22206,(703) 746-9007,245.0,4.0,20.0,38.841079,-77.088465,Arlington County,US,[0.0]
181,Shake Shack,50 Massachusetts Ave NE,Washington,DC,20002,(202) 684-2428,190.0,3.5,20.0,38.897538,-77.006179,District of Columbia,US,[0.0]
182,Le Pain Quotidien - Mount Vernon Triangle,433 Massachuetts Ave NW,Washington,DC,20001,(202) 312-5566,51.0,3.0,20.0,38.911936,-77.016719,District of Columbia,US,[0.0]
183,Duck Donuts,2511 N Harrison St,Arlington,VA,22207,(571) 297-2298,125.0,4.5,10.0,38.89768400000001,-77.139545,Arlington County,US,[0.0]
184,Green Leaf Cafe,1235 S Clark St,Arlington,VA,22202,(703) 414-3788,16.0,4.0,10.0,38.86158,-77.050826,Arlington County,US,[0.0]
185,Extra Perks Coffee Shop,822 N Fairfax St,Alexandria,VA,22314,(703) 706-5886,233.0,3.5,10.0,38.795755,-77.044177,Alexandria city,US,[0.0]
186,DNV Rooftop Lounge - Temp. CLOSED,1155 14th St NW,Washington,DC,20005,(202) 379-4366,97.0,3.5,20.0,38.90509,-77.03156800000002,District of Columbia,US,[1.5909090909090908]
187,Pancake House,7701 Annapolis Rd,Hyattsville,MD,20784,(301) 459-1200,59.0,4.0,10.0,38.947812,-76.889847,Prince George's County,US,[0.0]
188,Cafe Aurora,50 S Pickett St,Alexandria,VA,22304,(703) 567-4050,91.0,4.0,20.0,38.811142,-77.121205,Alexandria city,US,[0.0]
189,Earl’s Sandwiches,2605 Wilson Blvd,Arlington,VA,22201,(703) 248-0150,306.0,4.0,10.0,38.890076,-77.089913,Arlington County,US,[0.0]
190,Sweet Leaf,2200 Wilson Blvd,Arlington,VA,22201,(703) 525-5100,95.0,4.0,10.0,38.890838,-77.086146,Arlington County,US,[0.0]
191,Café Georgetown,3800 Reservoir Rd NW,Washington,DC,20007,(202) 444-3381,1.0,3.0,,38.91220300000001,-77.075282,District of Columbia,US,[0.0]
192,Tryst,2459 18th St NW,Washington,DC,20009,(202) 232-5500,1238.0,4.0,20.0,38.921957,-77.042152,District of Columbia,US,[0.0]
193,Wicked Waffle,7101 Democracy Blvd,Bethesda,MD,20817,(301) 469-0006,116.0,4.0,10.0,39.022142,-77.148498,Montgomery County,US,[0.0]
194,Peacock Cafe,3251 Prospect St NW,Washington,DC,20007,(202) 625-2740,327.0,3.5,20.0,38.906193,-77.0638,District of Columbia,US,[0.0]
195,Le Pain Quotidien,50 Massachusetts Ave NE,Washington,DC,20002,(202) 499-6789,72.0,3.0,20.0,38.897538,-77.006179,District of Columbia,US,[0.0]
196,Torrie’s,700 V St NW,Washington,DC,20001,(202) 462-3700,52.0,2.5,10.0,38.917557,-77.022147,District of Columbia,US,[0.0]
197,Twins Jazz,1344 U St NW,Washington,DC,20009,(202) 234-0072,90.0,3.0,20.0,38.916745,-77.031301,District of Columbia,US,[0.0]
198,Bullfrog Bagels,317 7th St SE,Washington,DC,20003,(202) 494-5615,11.0,3.0,10.0,38.885593,-76.99642800000002,District of Columbia,US,[0.0]
199,Silver Diner,3200 Wilson Blvd,Arlington,VA,22201,(703) 812-8600,389.0,3.5,20.0,38.88552,-77.09724399999998,Arlington County,US,[0.0]
200,Granite City Food & Brewery,200 American Way,National Harbor,MD,20745,(240) 493-3900,403.0,3.5,20.0,38.806809,-76.995859,Prince George's County,US,[0.0]
201,Legends Chicken & Grill,6401 ANNAPOLIS RD,Hyattsville,MD,20784,(240) 770-5151,49.0,4.0,10.0,38.938434,-76.907887,Prince George's County,US,[0.0]
202,Copperwood Tavern,4021 Campbell Ave,Arlington,VA,22206,(703) 552-8010,548.0,3.5,20.0,38.841078,-77.087687,Arlington County,US,[0.0]
203,Twist Georgetown,2506 Wisconsin Ave NW,Washington,DC,20007,(410) 522-4000,129.0,2.0,30.0,38.922912,-77.073279,District of Columbia,US,[0.0]
204,Chadwicks,203 Strand St,Alexandria,VA,22314,(703) 836-4442,374.0,3.5,20.0,38.802722,-77.039886,Alexandria city,US,[0.0]
205,The Original Pancake House,7700 Wisconsin Ave,Bethesda,MD,20814,(301) 986-0285,228.0,3.5,20.0,38.986621,-77.095493,Montgomery County,US,[0.0]
206,Founding Farmers Tysons,1800 Tysons Blvd,Tysons,VA,22102,(703) 442-8783,1227.0,3.5,20.0,38.922482,-77.22239499999998,Fairfax County,US,[0.0]
207,SOCCi,2800 S Potomac Ave,Arlington,VA,22202,,90.0,3.5,20.0,38.847777,-77.051194,Arlington County,US,[0.0]
208,AGB,1075 Thomas Jefferson St NW,Washington,DC,20007,(202) 337-0900,3.0,3.5,,38.904789,-77.059921,District of Columbia,US,[0.0]
209,Twisted Vines Bottleshop & Bistro,2803 Columbia Pike,Arlington,VA,22204,(571) 699-0851,260.0,4.0,20.0,38.862795,-77.086653,Arlington County,US,[0.0]
210,Fifteen Squares,999 9th St NW,Washington,DC,20001,(202) 898-9000,15.0,3.0,20.0,38.901828,-77.023688,District of Columbia,US,[0.0]
211,Eggspectation,923 Ellsworth Dr,Silver Spring,MD,20910,(301) 585-1700,555.0,3.0,20.0,38.995735,-77.02691999999998,Montgomery County,US,[0.0]
212,Jack’s Place,222 N Lee St,Alexandria,VA,22314,(703) 684-0372,80.0,3.5,10.0,38.806492,-77.04113199999998,Alexandria city,US,[0.0]
213,Au Bon Pain,1299 Pennsylvania Ave NW,Washington,DC,20004,(202) 783-9601,18.0,3.0,10.0,38.896323,-77.029318,District of Columbia,US,[1.5909090909090908]
214,Cassatt’s Kiwi Cafe & Gallery,4536 Lee Hwy,Arlington,VA,22207,(703) 527-3330,197.0,3.5,20.0,38.907416,-77.122344,Arlington County,US,[0.0]
215,Senart’s Oyster & Chop House,520 8th St SE,Washington,DC,20003,(202) 544-1168,172.0,3.5,20.0,38.881964,-76.99470699999998,District of Columbia,US,[0.0]
216,Jackson 20,480 King St,Alexandria,VA,22314,(703) 842-2790,525.0,3.5,20.0,38.804558,-77.044205,Alexandria city,US,[0.0]
217,The Original Pancake House,7395 Lee Hwy,Falls Church,VA,22042,(703) 698-6292,308.0,3.5,20.0,38.864543,-77.192399,Falls Church city,US,[0.0]
218,Ted’s Bulletin - Merrifield,2911 District Ave,Fairfax,VA,22031,(571) 830-6680,451.0,3.5,20.0,38.871668,-77.229702,Fairfax County,US,[0.0]
219,Eleni’s Greek Taverna,6131 Backlick Rd,Springfield,VA,22150,(703) 912-1400,180.0,4.5,20.0,38.783735,-77.183791,Fairfax County,US,[0.0]
220,Leo’s Eatery,7 N St SW,Washington,DC,20024,(202) 808-9344,3.0,4.5,10.0,38.874789,-77.009279,District of Columbia,US,[0.0]
221,Royal Restaurant,730 N St Asaph St,Alexandria,VA,22314,(703) 548-1616,226.0,3.5,20.0,38.80686,-77.056439,Alexandria city,US,[0.0]
222,Seasons Restaurant,2800 Pennsylvania Ave NW,Washington,DC,20007,(202) 342-0444,66.0,4.0,40.0,38.904691,-77.057244,District of Columbia,US,[0.0]
223,Huascaran,3606 Mount Vernon Ave,Alexandria,VA,22305,(703) 684-0494,35.0,4.0,20.0,38.838136,-77.06222199999998,Alexandria city,US,[0.0]
224,Cafe Natilee,3141 Fairview Park Dr,Falls Church,VA,22042,(703) 641-1500,14.0,4.5,20.0,38.860526,-77.21587,Fairfax County,US,[0.0]
225,Roof Terrace Restaurant,2700 F St NW,Washington,DC,20566,(202) 416-8555,143.0,2.5,30.0,38.895911,-77.055716,District of Columbia,US,[0.0]
226,Bob & Edith’s Diner,6316 Springfield Plz,Springfield,VA,22150,(703) 854-1401,166.0,3.5,10.0,38.781745,-77.18715999999998,Fairfax County,US,[0.0]
227,Harriet’s Family Restaurant,436 11th St NW,Washington,DC,20004,(202) 628-8024,63.0,2.0,20.0,38.895964,-77.027302,District of Columbia,US,[1.5909090909090908]
228,Urban Butcher,8226 Georgia Ave,Silver Spring,MD,20910,(301) 585-5800,441.0,3.5,30.0,38.992447,-77.026639,Montgomery County,US,[0.0]
229,First Watch,9600 Main Street,Fairfax,VA,22031,(703) 978-3421,337.0,4.0,20.0,38.842834,-77.274231,Fairfax city,US,[0.0]
230,Evening Star Cafe,2000 Mount Vernon Ave,Alexandria,VA,22301,(703) 549-5051,428.0,3.5,20.0,38.824016,-77.0584,Alexandria city,US,[0.0]
231,Le Pain Quotidien - Spring Valley,4874 Massachusetts Ave NW,Washington,DC,20016,(202) 459-9141,59.0,3.0,20.0,38.945363,-77.09657299999998,District of Columbia,US,[0.0]
232,Le Pain Quotidien,701 King St,Alexandria,VA,22314,(703) 683-2273,212.0,3.5,20.0,38.805188,-77.047137,Alexandria city,US,[0.0]
233,Sweet Leaf,7935L Tysons Corner Center,McLean,VA,22182,(703) 734-1624,24.0,4.0,20.0,38.90518400000001,-77.23926800000002,Fairfax County,US,[0.0]
234,Cosi,5252 Wisconsin Ave NW,Washington,DC,20015,(202) 537-9300,42.0,3.0,20.0,38.958737,-77.085146,District of Columbia,US,[0.0]
235,Mrs. K’s Restaurant & Barrel Bar,9201 Colesville Rd,Silver Spring,MD,20910,(301) 589-3500,286.0,3.5,30.0,39.00556,-77.022131,Montgomery County,US,[0.0]
236,Grillfish DC,1200 New Hampshire Ave NW,Washington,DC,20036,(202) 331-7310,409.0,3.5,20.0,38.905806,-77.04764899999998,District of Columbia,US,[1.5909090909090908]
237,Ireland’s Four Courts,2051 Wilson Blvd,Arlington,VA,22201,(703) 525-3600,308.0,3.5,20.0,38.891827,-77.084113,Arlington County,US,[0.0]
238,Crossroads Grill,5842 Columbia Pike,Falls Church,VA,22041,(703) 931-5426,13.0,4.0,10.0,38.848919,-77.133699,Fairfax County,US,[0.0]
239,Italian Gourmet Deli,1707 L St NW,Washington,DC,20036,(202) 736-9700,32.0,3.0,10.0,38.904044,-77.039224,District of Columbia,US,[1.5909090909090908]
240,Pret a Manger,1800 M Street NW,Washington,DC,20036,,6.0,4.0,20.0,38.90533,-77.042237,District of Columbia,US,[1.5909090909090908]
241,Young’s Carryout,8900 Edgeworth Dr,Capitol Heights,MD,20743,(301) 350-5181,27.0,4.5,10.0,38.881893,-76.85186999999998,Prince George's County,US,[0.0]
242,Silver Diner,6040 Greenbelt Rd,Greenbelt,MD,20770,(301) 220-0028,197.0,3.5,20.0,38.997793,-76.910026,Prince George's County,US,[0.0]
243,DC Harvest,517 H St NE,Washington,DC,20002,(202) 629-3296,239.0,3.5,20.0,38.900053,-76.999371,District of Columbia,US,[0.0]
244,The Diner,2453 18th St NW,Washington,DC,20009,(202) 232-8800,777.0,3.5,20.0,38.92184,-77.042098,District of Columbia,US,[0.0]
245,CIRCA at Clarendon,3010 Clarendon Blvd,Arlington,VA,22201,(703) 522-3010,328.0,3.5,20.0,38.887,-77.094288,Arlington County,US,[0.0]
246,Brown Bag,1147 20th St NW,Washington,DC,20036,(202) 683-4177,19.0,2.5,10.0,38.905156,-77.044549,District of Columbia,US,[1.5909090909090908]
247,The Kosher Pastry Oven Restaurant,1372 Lamberton Dr,Silver Spring,MD,20902,(301) 592-8844,50.0,4.5,20.0,39.04103900000001,-77.028708,Montgomery County,US,[0.0]
248,Simply Fresh,6811 Elm St,McLean,VA,22101,(703) 821-1869,19.0,3.5,10.0,38.934507,-77.178139,Fairfax County,US,[0.0]
249,Anthem,901 Massachusetts Ave NW,Washington,DC,20001,(202) 824-9386,6.0,2.5,30.0,38.903273,-77.02420500000002,District of Columbia,US,[0.0]
250,Le Pain Quotidien - Bethesda,7140 Bethesda Ln,Bethesda,MD,20814,(301) 913-2902,173.0,3.0,20.0,38.981367,-77.098034,Montgomery County,US,[0.0]
251,Blue Duck Tavern,1201 24th St NW,Washington,DC,20037,(202) 419-6755,1598.0,4.0,30.0,38.905728,-77.051124,District of Columbia,US,[0.0]
252,MoCo’s Founding Farmers,12505 Park Potomac Ave,Potomac,MD,20854,(301) 340-8783,1451.0,3.5,20.0,39.060212,-77.15765,Montgomery County,US,[0.0]
253,Uptown Cafe,3865 Wilson Blvd,Arlington,VA,22203,(703) 525-3091,13.0,4.0,10.0,38.880482,-77.106029,Arlington County,US,[0.0]
254,Paddy Barry’s Irish Pub and Restaurant,8150 Leesburg Pike,Tysons Corner,VA,22182,(703) 883-2000,115.0,4.0,20.0,38.916404,-77.226747,Fairfax County,US,[0.0]
255,Uptown Grill,7501 Greenway Center Dr,Greenbelt,MD,20770,(301) 345-3300,10.0,4.5,10.0,38.990791,-76.881111,Prince George's County,US,[0.0]
256,Market to Market,1615 L St NW,Washington,DC,20036,(202) 822-5183,12.0,3.5,10.0,38.904269,-77.037451,District of Columbia,US,[1.5909090909090908]
257,Crêpe Amour,407 Maple Ave E,Vienna,VA,22180,(703) 537-0083,201.0,4.0,10.0,38.896167,-77.27260799999998,Fairfax County,US,[0.0]
258,Pacifico Cantina,514 8th St SE,Washington,DC,20003,(202) 507-8143,356.0,2.5,20.0,38.882204,-76.99460400000002,District of Columbia,US,[0.0]
259,Slipstream,1333 14th St NW,Washington,DC,20005,(202) 450-2216,301.0,4.0,20.0,38.908358,-77.03149499999998,District of Columbia,US,[1.5909090909090908]
260,Seasons 52,7863L Tysons Corner,McLean,VA,22102,(703) 288-3852,655.0,4.0,20.0,38.92691,-77.226261,Fairfax County,US,[0.0]
261,Le Diplomate,1601 14th Street NW,Washington,DC,20009,(202) 332-3333,1780.0,4.0,30.0,38.911371,-77.03160600000002,District of Columbia,US,[0.0]
262,CIty Bites,1800 G St NW,Washington,DC,20006,(202) 289-1820,8.0,2.0,10.0,38.898019,-77.04259,District of Columbia,US,[1.5909090909090908]
263,Cafe Deluxe,4910 Elm St,Bethesda,MD,20814,(301) 656-3131,223.0,3.0,20.0,38.981956,-77.09706,Montgomery County,US,[0.0]
264,Le Pain Quotidien - Capitol Hill,660 Pennsylvania Ave SE,Washington,DC,20003,(202) 459-9147,236.0,3.0,20.0,38.885165,-76.996562,District of Columbia,US,[0.0]
265,E’s Breakfast Nook,705 4th St NW,Washington,DC,20001,(202) 545-1212,,,,38.898594,-77.015878,District of Columbia,US,[0.0]
266,Warehouse Bar & Grill,214 King St,Alexandria,VA,22314,(703) 683-6868,357.0,3.5,20.0,38.804345,-77.04212700000002,Alexandria city,US,[0.0]
267,Silver Diner,8101 Fletcher Ave,McLean,VA,22102,(703) 821-5666,222.0,3.5,20.0,38.916843,-77.226097,Fairfax County,US,[0.0]
268,Walker’s Grille,6909 Metro Park Dr,Alexandria,VA,22310,(703) 922-6200,193.0,3.5,20.0,38.768393,-77.155829,Fairfax County,US,[0.0]
269,Denny’s,4445 Benning Rd NE,Washington,DC,20019,(202) 399-7526,40.0,3.5,10.0,38.890444,-76.938334,District of Columbia,US,[0.0]
270,Terrace Deli,7500 Old Georgetown Rd,Bethesda,MD,20814,(301) 656-7500,14.0,3.5,10.0,38.984993,-77.095138,Montgomery County,US,[0.0]
271,Corner Bakery Cafe,1801 Pennsylvania Ave NW,Washington,DC,20005,(202) 887-0420,30.0,2.5,20.0,38.90041400000001,-77.042029,District of Columbia,US,[1.5909090909090908]
272,Keren Restaurant,1780 Florida Ave NW,Washington,DC,20009,(202) 265-5764,632.0,4.5,20.0,38.916743,-77.04128100000001,District of Columbia,US,[0.0]
273,Metro 29 Diner Restaurant,4711 Lee Hwy,Arlington,VA,22207,(703) 528-2464,451.0,3.0,20.0,38.907416,-77.122344,Arlington County,US,[0.0]
274,The Heights,3115 14th St NW,Washington,DC,20010,(202) 839-3006,590.0,3.5,20.0,38.929738,-77.032478,District of Columbia,US,[0.0]
275,Seasons 52,7863L Tysons Corner,McLean,VA,22102,(703) 288-3852,655.0,4.0,20.0,38.92691,-77.226261,Fairfax County,US,[0.0]
276,Yves Bistro,235 Swamp Fox Rd,Alexandria,VA,22314,(703) 329-1010,202.0,3.5,20.0,38.802097,-77.071635,Alexandria city,US,[0.0]
277,Uptown Grill,7501 Greenway Center Dr,Greenbelt,MD,20770,(301) 345-3300,10.0,4.5,10.0,38.990791,-76.881111,Prince George's County,US,[0.0]
278,Sofia’s Pupuseria,3610 Columbia Pike,Arlington,VA,22204,(703) 746-0355,12.0,4.0,20.0,38.860334,-77.094206,Arlington County,US,[0.0]
279,Bistro Provence,4933 Fairmont Ave,Bethesda,MD,20814,(301) 656-7373,117.0,3.5,30.0,38.98773900000001,-77.097645,Montgomery County,US,[0.0]
280,Yves Bistro,235 Swamp Fox Rd,Alexandria,VA,22314,(703) 329-1010,202.0,3.5,20.0,38.802097,-77.071635,Alexandria city,US,[0.0]
281,Florida Avenue Grill,1100 Florida Ave NW,Washington,DC,20009,(202) 265-1586,305.0,3.5,20.0,38.920624,-77.027381,District of Columbia,US,[0.0]
282,Orion Gourmet Take Away,8837 Greenbelt Rd,Greenbelt,MD,20770,(301) 552-4600,51.0,4.5,10.0,38.990893,-76.854618,Prince George's County,US,[0.0]
283,Bistro Provence,4933 Fairmont Ave,Bethesda,MD,20814,(301) 656-7373,117.0,3.5,30.0,38.98773900000001,-77.097645,Montgomery County,US,[0.0]
284,Metro 29 Diner Restaurant,4711 Lee Hwy,Arlington,VA,22207,(703) 528-2464,451.0,3.0,20.0,38.907416,-77.122344,Arlington County,US,[0.0]
285,Tastee Diner,8601 Cameron St,Silver Spring,MD,20910,(301) 589-8171,240.0,3.0,10.0,38.997455,-77.029687,Montgomery County,US,[0.0]
286,CremCafe,199 E Montgomery Ave,Rockville,MD,20850,(301) 309-0956,223.0,4.0,10.0,39.083948,-77.150356,Montgomery County,US,[0.0]
287,The Bagelry,36 Vital Way,Silver Spring,MD,20904,(301) 384-2322,85.0,4.0,10.0,39.074534,-77.003106,Montgomery County,US,[0.0]
288,The Heights,3115 14th St NW,Washington,DC,20010,(202) 839-3006,590.0,3.5,20.0,38.929738,-77.032478,District of Columbia,US,[0.0]
289,Keren Restaurant,1780 Florida Ave NW,Washington,DC,20009,(202) 265-5764,632.0,4.5,20.0,38.916743,-77.04128100000001,District of Columbia,US,[0.0]
290,Bentley’s Restaurant,6654 Arlington Blvd,Falls Church,VA,22042,(703) 532-4100,91.0,3.0,20.0,38.870363,-77.173487,Fairfax County,US,[0.0]
291,Corner Bakery Cafe,1801 Pennsylvania Ave NW,Washington,DC,20005,(202) 887-0420,30.0,2.5,20.0,38.90041400000001,-77.042029,District of Columbia,US,[1.5909090909090908]
292,Le Pain Quotidien - Mosaic District,8296 Glass Aly,Fairfax,VA,22031,(703) 462-9322,146.0,3.0,20.0,38.859531,-77.258547,Fairfax city,US,[0.0]
293,Sofia’s Pupuseria,3610 Columbia Pike,Arlington,VA,22204,(703) 746-0355,12.0,4.0,20.0,38.860334,-77.094206,Arlington County,US,[0.0]
294,Right Angle Deli,8401 Arlington Blvd,Fairfax,VA,22031,(703) 645-0288,32.0,4.0,10.0,38.864837,-77.234779,Fairfax County,US,[0.0]
295,The Original Pancake House,12224 Rockville Pike,Rockville,MD,20852,(301) 468-0886,259.0,3.5,20.0,39.05569600000001,-77.11975699999998,Montgomery County,US,[0.0]
296,Sweetleaf,1359 Chain Bridge Rd,McLean,VA,22101,(703) 893-2323,122.0,3.5,10.0,38.937113,-77.175304,Fairfax County,US,[0.0]
297,Woodward Takeout Food,1426 H St NW,Washington,DC,20005,(202) 347-5355,84.0,4.0,20.0,38.900051,-77.032302,District of Columbia,US,[1.5909090909090908]
298,IHOP,3100 14th St NW,Washington,DC,20010,(202) 939-0500,153.0,2.5,20.0,38.9293,-77.032984,District of Columbia,US,[0.0]
299,La Madeleine Country French Cafe,8435 Georgia Ave,Silver Spring,MD,20910,(301) 830-5354,72.0,3.0,20.0,38.994083,-77.026413,Montgomery County,US,[0.0]
300,Pacci’s Trattoria & Pasticceria,6 Post Office Rd,Silver Spring,MD,20910,(301) 588-0867,138.0,3.5,20.0,39.015222,-77.055592,Montgomery County,US,[0.0]
301,CIRCA at Foggy Bottom,2221 I St NW,Washington,DC,20037,(202) 506-5589,400.0,3.5,20.0,38.900975,-77.04961999999998,District of Columbia,US,[1.5909090909090908]
302,Champion Grill,10484 Baltimore Ave,Beltsville,MD,20705,(301) 937-5577,12.0,4.0,10.0,39.027432,-76.918555,Prince George's County,US,[0.0]
303,First Watch,100 Gibbs St,Rockville,MD,20850,(301) 762-0621,242.0,3.5,20.0,39.08519,-77.15193599999998,Montgomery County,US,[0.0]
304,Modern Market,4930 Elm St,Bethesda,MD,20814,(240) 800-4733,53.0,4.5,20.0,38.981983,-77.096758,Montgomery County,US,[0.0]
305,Peter’s Grill,519 E Gude Dr,Rockville,MD,20850,(301) 424-1111,102.0,4.5,10.0,39.106309,-77.15190799999998,Montgomery County,US,[0.0]
306,Cosi,700 11th St NW,Washington,DC,20001,(202) 824-0730,101.0,2.5,10.0,38.898741,-77.02731999999997,District of Columbia,US,[1.5909090909090908]
307,Gazebo Cafe,422 Main St,Gaithersburg,MD,20878,(240) 912-5353,201.0,4.5,20.0,39.121126,-77.236131,Montgomery County,US,[0.0]
308,Patty’s Place,9224 Warren St,Silver Spring,MD,20910,(301) 608-0060,17.0,4.0,10.0,39.00681,-77.04976500000002,Montgomery County,US,[0.0]
309,Dulce Crepes,11217F Lee Hwy,Fairfax,VA,22030,(703) 273-6561,50.0,4.0,10.0,38.851103,-77.33674,Fairfax County,US,[0.0]
310,The Hilltop Bar & Restaurant,2737 Sherman Ave NW,Washington,DC,20001,(202) 642-1584,4.0,4.5,20.0,38.925746,-77.02555600000002,District of Columbia,US,[0.0]
311,First Watch,14700 Baltimore Ave,Laurel,MD,20707,(301) 498-3447,129.0,3.5,20.0,39.094047,-76.856945,Prince George's County,US,[0.0]
312,Le Pain Quotidien,2900 Clarendon Blvd,Arlington,VA,22201,(703) 465-0970,187.0,3.0,20.0,38.887474,-77.093462,Arlington County,US,[0.0]
313,Denny’s,1250 Bladensburg Rd NE,Washington,DC,20002,(202) 758-3637,51.0,3.0,20.0,38.906782,-76.979484,District of Columbia,US,[0.0]
314,Farmers & Distillers,600 Massachusetts Ave NW,Washington,DC,20001,(202) 464-3001,,,,38.901399,-77.02052900000002,District of Columbia,US,[0.0]
315,Scarlet Oak,909 New Jersey Ave SE,Washington,DC,20003,(202) 780-0140,136.0,4.0,20.0,38.878861,-77.005493,District of Columbia,US,[0.0]
316,FireFlies Restaurant,1501 Mt Vernon Ave,Alexandria,VA,22301,(703) 548-7200,304.0,3.0,20.0,38.64974,-77.136679,Fairfax County,US,[0.0]
317,First Watch,15471 Excelsior Dr,Bowie,MD,20716,(301) 352-3447,218.0,3.5,20.0,38.926311,-76.709789,Prince George's County,US,[0.0]
318,Cocorea Deli,7608 Fullerton Rd,Springfield,VA,22153,(703) 455-4141,24.0,4.5,10.0,38.742917,-77.203497,Fairfax County,US,[0.0]
319,Cafe Dupont,1500 New Hampshire Ave NW,Washington,DC,20036,(202) 483-6000,147.0,3.5,20.0,38.91047,-77.043093,District of Columbia,US,[0.0]
320,Normandie Farm,10710 Falls Rd,Potomac,MD,20854,(301) 983-8838,118.0,3.0,30.0,39.030613,-77.202958,Montgomery County,US,[0.0]
321,The Hamilton,600 14th St NW,Washington,DC,20005,(202) 787-1000,1348.0,3.5,20.0,38.897687,-77.032274,District of Columbia,US,[1.5909090909090908]
322,IHOP,1523 Alabama Ave SE,Washington,DC,20032,(202) 563-5890,34.0,2.5,10.0,38.845982,-76.982736,District of Columbia,US,[0.0]
323,Aroma Espresso Bar,7101 Democracy Blvd,Bethesda,MD,20817,(301) 312-6216,92.0,4.0,10.0,39.022142,-77.148498,Montgomery County,US,[0.0]
324,The Great Eatery,1000 Wilson Blvd,Arlington,VA,22209,(703) 527-2110,6.0,3.5,10.0,38.893953,-77.068836,Arlington County,US,[0.0]
325,IHOP,4400 St. Barnabas Rd,Temple Hills,MD,20748,(301) 423-4545,22.0,3.5,10.0,38.817263,-76.935795,Prince George's County,US,[0.0]
326,Duke’s Grocery,1513 17th St NW,Washington,DC,20036,(202) 733-5623,568.0,4.0,20.0,38.910196,-77.03815300000002,District of Columbia,US,[1.5909090909090908]
327,Samuel Beckett’s Irish Gastro Pub,2800 S Randolph St,Arlington,VA,22206,(703) 379-0122,238.0,3.5,20.0,38.840446,-77.089224,Arlington County,US,[0.0]
328,Le Pain Quotidien,10217 Old Georgetown Rd,Bethesda,MD,20814,(240) 752-8737,74.0,3.0,20.0,39.02261,-77.12343,Montgomery County,US,[0.0]
329,Trinity Deli,200 Michigan Ave NE,Washington,DC,20017,(202) 667-6886,24.0,3.5,10.0,38.9296,-77.00409499999998,District of Columbia,US,[0.0]
330,Eclectic Cafe,4058 Minnesota Ave NE,Washington,DC,20019,(202) 397-1095,1.0,1.0,,38.896969,-76.947855,District of Columbia,US,[0.0]
331,Cafe des Artistes,500 17th St NW,Washington,DC,20006,(202) 639-1786,6.0,3.0,20.0,38.895847,-77.03974000000002,District of Columbia,US,[1.5909090909090908]
332,El Mexireno Restaurant,5494 Saint Barnabas Rd,Oxon Hill,MD,20745,(301) 630-1200,33.0,4.5,10.0,38.806809,-76.995859,Prince George's County,US,[0.0]
333,Crystal City Sports Pub,529 23rd St S,Arlington,VA,22202,(571) 305-5229,398.0,3.5,20.0,38.853495,-77.05431800000002,Arlington County,US,[0.0]
334,Matchbox,1100 South Hayes St,Arlington,VA,22202,(703) 340-3884,50.0,3.5,20.0,38.863723,-77.060559,Arlington County,US,[0.0]
335,Silo,919 5th St NW,Washington,DC,20001,(202) 290-2233,214.0,3.5,20.0,38.901923,-77.01864300000003,District of Columbia,US,[0.0]
336,Paul Bakery & Café,801 Pennsylvania Ave NW,Washington,DC,20004,(202) 524-4500,448.0,3.5,20.0,38.89442800000001,-77.02350600000003,District of Columbia,US,[0.0]
337,Art and Soul,415 New Jersey Ave NW,Washington,DC,20001,(202) 854-0023,712.0,3.5,30.0,38.89539,-77.010684,District of Columbia,US,[0.0]
338,Yellow House,4011 Minnesota Ave NE,Washington,DC,20019,(202) 397-2266,7.0,2.0,,38.895437,-76.948635,District of Columbia,US,[0.0]
339,Cocorea Deli,7608 Fullerton Rd,Springfield,VA,22153,(703) 455-4141,24.0,4.5,10.0,38.742917,-77.203497,Fairfax County,US,[0.0]
340,Peter’s Grill,519 E Gude Dr,Rockville,MD,20850,(301) 424-1111,102.0,4.5,10.0,39.106309,-77.15190799999998,Montgomery County,US,[0.0]
341,IHOP,3425 A Jefferson Davis Hwy,Alexandria,VA,22305,(703) 519-4220,92.0,3.0,20.0,38.838576,-77.051863,Alexandria city,US,[0.0]
342,Juniper Restaurant,2401 M St NW,Washington,DC,20037,(202) 457-5020,93.0,3.5,30.0,38.905549,-77.051774,District of Columbia,US,[0.0]
343,Einstein Bros Bagels,"1 Aviation Cir, South Pier, Terminal B",Washington,DC,20001,(703) 417-1624,38.0,2.5,10.0,38.911936,-77.016719,District of Columbia,US,[0.0]
344,Dip N Rolls,8737 Colesville Rd,Silver Spring,MD,20910,(202) 400-0633,20.0,4.5,10.0,38.998721,-77.025715,Montgomery County,US,[0.0]
345,Dos Gringos Cafe,3116 Mt. Pleasant St NW,Washington,DC,20010,(202) 462-1159,161.0,3.0,10.0,38.932711,-77.030248,District of Columbia,US,[0.0]
346,First Watch,14700 Baltimore Ave,Laurel,MD,20707,(301) 498-3447,129.0,3.5,20.0,39.094047,-76.856945,Prince George's County,US,[0.0]
347,Casablanca Cafe,8325 Old Marlboro Pike,Upper Marlboro,MD,20772,(301) 735-5888,10.0,3.5,20.0,38.837028,-76.86200500000002,Prince George's County,US,[0.0]
348,Del Ray Cafe,205 E Howell Ave,Alexandria,VA,22301,(703) 717-9151,345.0,4.0,20.0,38.823855,-77.05771800000002,Alexandria city,US,[0.0]
349,IHOP,3425 A Jefferson Davis Hwy,Alexandria,VA,22305,(703) 519-4220,92.0,3.0,20.0,38.838576,-77.051863,Alexandria city,US,[0.0]
350,Einstein Bros Bagels,"1 Aviation Cir, South Pier, Terminal B",Washington,DC,20001,(703) 417-1624,38.0,2.5,10.0,38.911936,-77.016719,District of Columbia,US,[0.0]
351,Juniper Restaurant,2401 M St NW,Washington,DC,20037,(202) 457-5020,93.0,3.5,30.0,38.905549,-77.051774,District of Columbia,US,[0.0]
352,IHOP,6171 Oxon Hill Rd,Oxon Hill,MD,20745,(301) 839-4468,25.0,2.5,20.0,38.80458400000001,-76.98083199999998,Prince George's County,US,[0.0]
353,Dos Gringos Cafe,3116 Mt. Pleasant St NW,Washington,DC,20010,(202) 462-1159,161.0,3.0,10.0,38.932711,-77.030248,District of Columbia,US,[0.0]
354,Seasons 52,11414 Rockville Pike,North Bethesda,MD,20852,(301) 984-5252,443.0,3.5,30.0,39.042222,-77.11081300000002,Montgomery County,US,[0.0]
355,Del Ray Cafe,205 E Howell Ave,Alexandria,VA,22301,(703) 717-9151,345.0,4.0,20.0,38.823855,-77.05771800000002,Alexandria city,US,[0.0]
356,IHOP,12251 Tech Rd,Silver Spring,MD,20904,(301) 680-1920,64.0,4.0,10.0,39.054424,-76.967675,Montgomery County,US,[0.0]
357,Wapa Cafe Boutique,6230 Georgia Ave Nw,Washington,DC,20011,(202) 291-2224,82.0,4.5,10.0,38.965879,-77.027893,District of Columbia,US,[0.0]
358,Gathering Grounds Cafe,10637 Braddock Rd,Fairfax,VA,22032,(703) 278-5400,47.0,4.0,10.0,38.825487,-77.314676,Fairfax County,US,[0.0]
359,PB’s Coffee & Dessert,5562 Norbeck Rd,Rockville,MD,20853,(301) 460-1072,17.0,4.0,10.0,39.094905,-77.11301800000003,Montgomery County,US,[0.0]
360,Outta The Way Cafe,17503 Redland Rd,Derwood,MD,20855,(301) 963-6895,92.0,3.5,20.0,39.139105,-77.14348299999997,Montgomery County,US,[0.0]
361,Silver Diner,3081 Festival Way,Waldorf,MD,20601,(301) 645-1224,197.0,4.0,20.0,38.628115,-76.910674,Charles County,US,[0.0]
362,Tunnicliff’s Tavern,222 7th St  SE,Washington,DC,20003,(202) 544-5680,270.0,3.5,20.0,38.886607,-76.995848,District of Columbia,US,[0.0]
363,Bayou Bakery,901 Pennsylvania Ave SE,Washington,DC,20003,(202) 664-5307,121.0,3.5,10.0,38.883153,-76.993523,District of Columbia,US,[0.0]
364,Ted’s Bulletin,11948 Market St,Reston,VA,20190,(703) 956-9510,465.0,3.5,20.0,38.958922,-77.35834,Fairfax County,US,[0.0]
365,"Crepes At The Market, Eastern Market",7th St SE and N Carolina Ave SE,Washington,DC,20003,,159.0,4.5,10.0,38.887384,-76.996196,District of Columbia,US,[0.0]
366,First Watch,13027 Lee Jackson Memorial Highway,Chantilly,VA,22033,(703) 263-2344,207.0,4.0,20.0,38.878693,-77.39753499999998,Fairfax County,US,[0.0]
367,The Olney Tavern,18200 Georgia Ave,Olney,MD,20832,(301) 260-0500,82.0,3.5,20.0,39.154768,-77.06744,Montgomery County,US,[0.0]
368,Bagel Cafe,300 Elden St,Herndon,VA,20170,(703) 318-7555,264.0,4.0,10.0,38.96751,-77.372364,Fairfax County,US,[0.0]
369,Donut King,3727 University Blvd W,Kensington,MD,20895,(301) 949-3464,57.0,3.0,10.0,39.03216,-77.074717,Montgomery County,US,[0.0]
370,Granville Moore’s,1238 H St NE,Washington,DC,20002,(202) 399-2546,882.0,4.0,20.0,38.90035,-76.989657,District of Columbia,US,[0.0]
371,ChurchKey,1337 14th St NW,Washington,DC,20005,(202) 567-2576,1175.0,4.0,20.0,38.908482,-77.031607,District of Columbia,US,[1.5909090909090908]
372,PB’s Coffee & Dessert,5562 Norbeck Rd,Rockville,MD,20853,(301) 460-1072,17.0,4.0,10.0,39.094905,-77.11301800000003,Montgomery County,US,[0.0]
373,VIA 19,1140 19th St NW,Washington,DC,20036,(202) 429-8889,27.0,2.5,20.0,38.904954,-77.043881,District of Columbia,US,[1.5909090909090908]
374,Brookland’s Finest,3126 12th St NE,Washington,DC,20017,(202) 636-0050,280.0,4.0,20.0,38.929371,-76.990994,District of Columbia,US,[0.0]
375,Sixth Engine,438 Massachusetts Ave NW,Washington,DC,20001,(202) 506-2455,334.0,3.5,20.0,38.900233,-77.017273,District of Columbia,US,[0.0]
376,Jardenea,2430 Pennsylvania Ave NW,Washington,DC,20037,(202) 955-6400,95.0,4.0,30.0,38.903012,-77.052678,District of Columbia,US,[0.0]
377,The Alibi,237 2nd St NW,Washington,DC,20001,(202) 347-2237,85.0,4.5,20.0,38.89341500000001,-77.013465,District of Columbia,US,[0.0]
378,Vienna Fire Station,400 Center St S,Vienna,VA,22180,(703) 938-2242,1.0,5.0,,38.898997,-77.261586,Fairfax County,US,[0.0]
379,Cody’s Bar & Grill,10716 Richmond Hwy,Lorton,VA,22079,(703) 888-3531,58.0,4.0,20.0,38.670262,-77.238825,Fairfax County,US,[0.0]
380,Mark’s Kitchen,7006 Carroll Ave,Takoma Park,MD,20912,(301) 270-1884,335.0,4.0,20.0,38.974985,-77.012153,Montgomery County,US,[0.0]
381,BLT Grill,9623 Lost Knife Rd,Gaithersburg,MD,20877,(301) 977-6575,107.0,4.5,10.0,39.153059000000006,-77.198758,Montgomery County,US,[0.0]
382,Boundary Stone,116 Rhode Island Ave NW,Washington,DC,20001,(202) 621-6635,354.0,4.0,20.0,38.915218,-77.012754,District of Columbia,US,[0.0]
383,Rips Country Inn,3809 Crain Hwy,Bowie,MD,20716,(301) 805-5900,135.0,3.5,20.0,38.926311,-76.709789,Prince George's County,US,[0.0]
384,Waffle King’s Virginia Kitchen,450 Elden St,Herndon,VA,20170,(703) 471-0808,243.0,3.5,10.0,38.968308,-77.375452,Fairfax County,US,[0.0]
385,The Fainting Goat,1330 U St NW,Washington,DC,20009,,372.0,4.0,20.0,38.916798,-77.030878,District of Columbia,US,[0.0]
386,Cafein,13924 Metrotech Dr,Chantilly,VA,20151,(703) 961-1081,195.0,4.5,10.0,38.896488,-77.423985,Fairfax County,US,[0.0]
387,Cafe Deluxe,2201 M St NW,Washington,DC,20037,(202) 524-7815,143.0,3.5,20.0,38.9055,-77.049064,District of Columbia,US,[1.5909090909090908]
388,Barking Mad Cafe,239 Spectrum Ave,Gaithersburg,MD,20879,(240) 297-6230,114.0,3.5,20.0,39.173,-77.185542,Montgomery County,US,[0.0]
389,Tropical Smoothie Cafe,6110-A Arlington Blvd,Falls Church,VA,22044,(703) 992-8004,29.0,4.0,10.0,38.868923,-77.143957,Fairfax County,US,[0.0]
390,Clyde’s of Georgetown,3236 M St NW,Washington,DC,20007,(202) 333-9180,684.0,4.0,20.0,38.904999,-77.064022,District of Columbia,US,[0.0]
391,Capital City Cheesecake,7071 Carroll Ave,Takoma Park,MD,20912,(301) 270-7260,201.0,4.0,10.0,38.975189,-77.009447,Montgomery County,US,[0.0]
392,Outta The Way Cafe,17503 Redland Rd,Derwood,MD,20855,(301) 963-6895,92.0,3.5,20.0,39.139105,-77.14348299999997,Montgomery County,US,[0.0]
393,Room 11,3234 11th St NW,Washington,DC,20010,(202) 332-3234,407.0,4.0,20.0,38.930495,-77.02815,District of Columbia,US,[0.0]
394,Simit + Smith,1077 Wisconsin Ave NW,Washington,DC,20007,(202) 758-0553,67.0,4.0,10.0,38.904789,-77.062572,District of Columbia,US,[0.0]
395,Saratoga Pizzeria & Grill,8050 Rolling Rd,Springfield,VA,22153,(703) 455-0044,117.0,4.0,20.0,38.740419,-77.212102,Fairfax County,US,[0.0]
396,Silver Diner,3081 Festival Way,Waldorf,MD,20601,(301) 645-1224,197.0,4.0,20.0,38.628115,-76.910674,Charles County,US,[0.0]
397,The Olney Tavern,18200 Georgia Ave,Olney,MD,20832,(301) 260-0500,82.0,3.5,20.0,39.154768,-77.06744,Montgomery County,US,[0.0]
398,Silver,7150 Woodmont Ave,Bethesda,MD,20815,(301) 652-9780,141.0,3.5,20.0,38.979865,-77.093588,Montgomery County,US,[0.0]
399,Orchard Cafe,8777 Piney Orchard Pkwy,Odenton,MD,21113,(410) 695-0666,60.0,4.0,10.0,39.068597,-76.714997,Anne Arundel County,US,[0.0]
400,Sweetgrass: Low Country Cooking,7401 Surratts Rd,Clinton,MD,20735,(301) 856-4500,9.0,1.5,20.0,38.748415,-76.87832900000002,Prince George's County,US,[0.0]
401,ChurchKey,1337 14th St NW,Washington,DC,20005,(202) 567-2576,1175.0,4.0,20.0,38.908482,-77.031607,District of Columbia,US,[1.5909090909090908]
402,La Casa Pizzeria Restaurant,4551 Duke St,Alexandria,VA,22304,(703) 370-3600,111.0,4.0,20.0,38.813057,-77.11125799999998,Alexandria city,US,[0.0]
403,Brookland’s Finest,3126 12th St NE,Washington,DC,20017,(202) 636-0050,280.0,4.0,20.0,38.929371,-76.990994,District of Columbia,US,[0.0]
404,Community Canteen,11950 Democracy Dr,Reston,VA,20190,(703) 707-9442,152.0,3.5,10.0,38.95807,-77.359543,Fairfax County,US,[0.0]
405,VIA 19,1140 19th St NW,Washington,DC,20036,(202) 429-8889,27.0,2.5,20.0,38.904954,-77.043881,District of Columbia,US,[1.5909090909090908]
406,Sixth Engine,438 Massachusetts Ave NW,Washington,DC,20001,(202) 506-2455,334.0,3.5,20.0,38.900233,-77.017273,District of Columbia,US,[0.0]
407,Jardenea,2430 Pennsylvania Ave NW,Washington,DC,20037,(202) 955-6400,95.0,4.0,30.0,38.903012,-77.052678,District of Columbia,US,[0.0]
408,The Alibi,237 2nd St NW,Washington,DC,20001,(202) 347-2237,85.0,4.5,20.0,38.89341500000001,-77.013465,District of Columbia,US,[0.0]
409,GTown Bites,3206 O St NW,Washington,DC,20007,(202) 450-3320,56.0,4.0,10.0,38.907706,-77.063846,District of Columbia,US,[0.0]
410,Bruegger’s Bagels,818 N Quincy Street,Arlington,VA,22203,(703) 248-0980,99.0,2.5,10.0,38.880331,-77.107845,Arlington County,US,[0.0]
411,"Bayou Bakery, Coffee Bar & Eatery",1515 N Courthouse Rd,Arlington,VA,22201,(571) 384-2181,617.0,3.5,10.0,38.891181,-77.08363299999998,Arlington County,US,[0.0]
412,Cinthia’s Bakery,5037 Columbia Pike,Arlington,VA,22204,(703) 998-2375,17.0,2.5,20.0,38.855525,-77.114011,Arlington County,US,[0.0]
413,Tropical Smoothie Cafe,6110-A Arlington Blvd,Falls Church,VA,22044,(703) 992-8004,29.0,4.0,10.0,38.868923,-77.143957,Fairfax County,US,[0.0]
414,Leopolds Kafe and Konditorei,3315 M St NW,Washington,DC,20007,(202) 965-6005,,,,38.905247,-77.066511,District of Columbia,US,[0.0]
415,Capital City Cheesecake,7071 Carroll Ave,Takoma Park,MD,20912,(301) 270-7260,201.0,4.0,10.0,38.975189,-77.009447,Montgomery County,US,[0.0]
416,City Tap House,901 I St NW,Washington,DC,20001,(202) 733-5333,979.0,4.0,20.0,38.901178,-77.01517199999998,District of Columbia,US,[0.0]
417,The Pub by Wegmans,7905 Hilltop Village Center Dr,Alexandria,VA,22315,(571) 527-2465,62.0,3.0,20.0,38.742388,-77.16177900000002,Fairfax County,US,[0.0]
418,IHOP,935 N Stafford St,Arlington,VA,22203,(703) 522-3118,115.0,3.0,20.0,38.88205,-77.11005300000002,Arlington County,US,[0.0]
419,Crepes-A-Go-Go,514 Main St,Gaithersburg,MD,20878,(301) 519-9777,159.0,3.5,10.0,39.121057,-77.235573,Montgomery County,US,[0.0]
420,The Airport Cafe,7940 Airpark Rd,Gaithersburg,MD,20879,(240) 406-8623,34.0,4.0,10.0,39.167811,-77.162334,Montgomery County,US,[0.0]
421,Paul Bakery & Cafe,2000 Pennsylvania Ave NW,Washington,DC,20052,(202) 524-4655,91.0,3.0,20.0,38.900355,-77.045776,District of Columbia,US,[1.5909090909090908]
422,Silver,7150 Woodmont Ave,Bethesda,MD,20815,(301) 652-9780,141.0,3.5,20.0,38.979865,-77.093588,Montgomery County,US,[0.0]
423,Clyde’s of Georgetown,3236 M St NW,Washington,DC,20007,(202) 333-9180,684.0,4.0,20.0,38.904999,-77.064022,District of Columbia,US,[0.0]
424,Room 11,3234 11th St NW,Washington,DC,20010,(202) 332-3234,407.0,4.0,20.0,38.930495,-77.02815,District of Columbia,US,[0.0]
425,The Brown Box Eatery,1109 Odenton Rd,Odenton,MD,21113,(410) 674-2269,122.0,4.0,10.0,39.078254,-76.68558,Anne Arundel County,US,[0.0]
426,Simit + Smith,1077 Wisconsin Ave NW,Washington,DC,20007,(202) 758-0553,67.0,4.0,10.0,38.904789,-77.062572,District of Columbia,US,[0.0]
427,Enbela Market & Carry Out,7849 Eastern Ave Silver,Silver Spring,MD,20910,(301) 326-4023,1.0,5.0,,38.985827,-77.027752,Montgomery County,US,[0.0]
428,Trummer’s On Main,7134 Main St,Clifton,VA,20124,(703) 266-1623,334.0,4.0,30.0,38.781176,-77.387662,Fairfax County,US,[0.0]
429,Maketto,1351 H St NE,Washington,DC,20002,(202) 838-9972,422.0,4.0,20.0,38.900048,-76.987033,District of Columbia,US,[0.0]
430,Deli Works,2136 Crystal Plaza Arc,Arlington,VA,22202,(703) 415-1515,12.0,2.5,10.0,38.855157,-77.05040699999998,Arlington County,US,[0.0]
431,The Greenhouse,1200 16th St NW,Washington,DC,20036,(202) 448-2300,30.0,3.5,30.0,38.905938,-77.036956,District of Columbia,US,[1.5909090909090908]
432,Barking Mad Cafe,239 Spectrum Ave,Gaithersburg,MD,20879,(240) 297-6230,114.0,3.5,20.0,39.173,-77.185542,Montgomery County,US,[0.0]
433,Roofers Union,2446 18th St NW,Washington,DC,20009,(202) 232-7663,252.0,3.5,20.0,38.921833,-77.042698,District of Columbia,US,[0.0]
434,Fare Well,406 H St NE,Washington,DC,20002,(202) 367-9600,111.0,4.0,20.0,38.900354,-77.000517,District of Columbia,US,[0.0]
435,Woodfield Diner,18544 Woodfield Rd,Gaithersburg,MD,20879,(301) 963-6100,47.0,4.0,10.0,39.16917700000001,-77.154492,Montgomery County,US,[0.0]
436,The Tavern at the Henley Park,926 Massachusetts Ave NW,Washington,DC,20001,(202) 414-0500,41.0,3.5,20.0,38.903147,-77.025708,District of Columbia,US,[1.5909090909090908]
437,The Pitch Tavern,4015 Georgia Ave NW,Washington,DC,20011,(202) 560-5142,65.0,4.0,20.0,38.940262,-77.024703,District of Columbia,US,[0.0]
438,Newington Cafe and Grill,8000 Haute Ct,Springfield,VA,22150,(703) 372-5808,3.0,4.5,10.0,38.741154,-77.194011,Fairfax County,US,[0.0]
439,The White Rabbit,1402 Odenton Rd,Odenton,MD,21113,(410) 805-4500,11.0,4.5,10.0,39.087126,-76.706345,Anne Arundel County,US,[0.0]
440,Mosaic Cuisine & Cafe,186 Halpine Rd,Rockville,MD,20852,(301) 468-0682,316.0,4.0,20.0,39.06004,-77.126894,Montgomery County,US,[0.0]
441,Silver Diner,11951 Killingsworth Ave,Reston,VA,20194,(703) 742-0801,191.0,3.5,20.0,38.966665,-77.358649,Fairfax County,US,[0.0]
442,Fresh Kitchen,2650 Jefferson Davis Highway,Arlington,VA,22202,(703) 842-1240,5.0,2.0,20.0,38.849465,-77.053379,Arlington County,US,[0.0]
443,Silver Diner,14375 Smoketown Rd,Dale City,VA,22192,(703) 643-2363,218.0,4.0,20.0,38.639376,-77.298661,Prince William County,US,[0.0]
444,Metro Cafe,139 Spring St,Herndon,VA,20170,(703) 471-6133,30.0,4.0,10.0,38.957855,-77.37324100000002,Fairfax County,US,[0.0]
445,Linda’s Cafe,5050 Lee Hwy,Arlington,VA,22207,(703) 538-2542,140.0,3.5,10.0,38.907416,-77.122344,Arlington County,US,[0.0]
446,Mike & Sons Sub Shop,5404 Randolph Rd,Rockville,MD,20852,(301) 468-9066,96.0,4.0,10.0,39.053384,-77.106953,Montgomery County,US,[0.0]
447,Kangaroo Boxing Club,3410 11th St Nw,Washington,DC,20010,(202) 505-4522,334.0,4.0,20.0,38.932143,-77.028536,District of Columbia,US,[0.0]
448,Bird Kitchen and Cocktails,3801 34th St,Mount Rainier,MD,20712,(240) 467-3089,106.0,4.0,20.0,38.936688,-76.960414,Prince George's County,US,[0.0]
449,Jack’s Famous Deli,4315 Forbes Blvd,Lanham,MD,20706,(301) 577-1169,12.0,3.0,10.0,38.949583,-76.830024,Prince George's County,US,[0.0]
450,Tavern 64,1800 Presidents St,Reston,VA,20190,(703) 925-8250,162.0,3.5,20.0,38.958254,-77.35576800000003,Fairfax County,US,[0.0]
451,Mankira Coffee,13881 Outlet Dr,Silver Spring,MD,20904,(240) 560-6604,17.0,4.5,20.0,39.082701,-76.94676199999998,Montgomery County,US,[0.0]
452,Metro Cafeteria,2650 Park Tower Dr,Vienna,VA,22180,(703) 560-2111,2.0,4.5,10.0,38.882846,-77.227034,Fairfax County,US,[0.0]
453,So’s Your Mom,1831 Columbia Rd NW,Washington,DC,20009,(202) 462-3666,260.0,4.0,10.0,38.921695,-77.043774,District of Columbia,US,[0.0]
454,Arcuri,2400 Wisconsin Ave NW,Washington,DC,20007,(202) 827-8745,155.0,4.0,20.0,38.921197,-77.072388,District of Columbia,US,[0.0]
455,Bar Deco,717 6th St NW,Washington,DC,20001,(202) 774-5867,153.0,3.5,20.0,38.898951,-77.01957900000002,District of Columbia,US,[0.0]
456,Nage,1600 Rhode Island Ave NW,Washington,DC,20036,(202) 448-8005,342.0,3.5,20.0,38.906666,-77.036971,District of Columbia,US,[1.5909090909090908]
457,CIRCA at Dupont,1601 Connecticut Ave NW,Washington,DC,20009,(202) 667-1601,532.0,3.5,20.0,38.911376,-77.044089,District of Columbia,US,[0.0]
458,Le Bon Cafe,210 2nd St SE,Washington,DC,20003,(202) 547-7200,110.0,3.5,10.0,38.88704600000001,-77.0033,District of Columbia,US,[0.0]
459,Ben’s Upstairs,1001 H St NE,Washington,DC,20002,(202) 733-2405,57.0,3.5,20.0,38.900052,-76.992645,District of Columbia,US,[0.0]
460,Cafe Pizzaiolo,1623 Fern St,Alexandria,VA,22302,(703) 894-2250,153.0,3.0,20.0,38.829602,-77.084317,Alexandria city,US,[0.0]
461,Kafe Bohem,606 Florida Ave NW,Washington,DC,20001,(202) 735-5895,80.0,4.0,20.0,38.91538,-77.020303,District of Columbia,US,[0.0]
462,Asado Brasserie,4095 Powder Mill Rd,Beltsville,MD,20705,(301) 937-4422,2.0,4.0,,39.047462,-76.93457,Prince George's County,US,[0.0]
463,The Royal,501 Florida Ave NW,Washington,DC,20001,(202) 332-7777,87.0,4.0,20.0,38.914997,-77.018556,District of Columbia,US,[0.0]
464,Oby Lee,3000 N Washington Blvd,Arlington,VA,22201,(571) 257-5054,346.0,4.5,20.0,38.884894,-77.094128,Arlington County,US,[0.0]
465,Meridian Pint,3400 11th St NW,Washington,DC,20010,(202) 588-1075,560.0,3.5,20.0,38.931986,-77.028531,District of Columbia,US,[0.0]
466,Fyve Restaurant Lounge,1250 South Hayes Street,Arlington,VA,22202,(703) 415-5000,86.0,4.0,30.0,38.86244600000001,-77.060565,Arlington County,US,[0.0]
467,Maketto,1351 H St NE,Washington,DC,20002,(202) 838-9972,422.0,4.0,20.0,38.900048,-76.987033,District of Columbia,US,[0.0]
468,RIS,2275 L St NW,Washington,DC,20037,(202) 730-2500,361.0,3.5,30.0,38.903956,-77.04979499999997,District of Columbia,US,[1.5909090909090908]
469,Maketto,1351 H St NE,Washington,DC,20002,(202) 838-9972,422.0,4.0,20.0,38.900048,-76.987033,District of Columbia,US,[0.0]
470,RIS,2275 L St NW,Washington,DC,20037,(202) 730-2500,361.0,3.5,30.0,38.903956,-77.04979499999997,District of Columbia,US,[1.5909090909090908]
471,Deli Works,2136 Crystal Plaza Arc,Arlington,VA,22202,(703) 415-1515,12.0,2.5,10.0,38.855157,-77.05040699999998,Arlington County,US,[0.0]
472,Amphora Diner,1151 Elden St,Herndon,VA,20170,(703) 925-0900,290.0,3.0,20.0,38.963857,-77.39721899999998,Fairfax County,US,[0.0]
473,The Greenhouse,1200 16th St NW,Washington,DC,20036,(202) 448-2300,30.0,3.5,30.0,38.905938,-77.036956,District of Columbia,US,[1.5909090909090908]
474,Fare Well,406 H St NE,Washington,DC,20002,(202) 367-9600,111.0,4.0,20.0,38.900354,-77.000517,District of Columbia,US,[0.0]
475,Roofers Union,2446 18th St NW,Washington,DC,20009,(202) 232-7663,252.0,3.5,20.0,38.921833,-77.042698,District of Columbia,US,[0.0]
476,Bread & Chocolate,611 King St,Alexandria,VA,22314,(703) 548-0992,140.0,3.0,20.0,38.805079,-77.046291,Alexandria city,US,[0.0]
477,The Pitch Tavern,4015 Georgia Ave NW,Washington,DC,20011,(202) 560-5142,65.0,4.0,20.0,38.940262,-77.024703,District of Columbia,US,[0.0]
478,Eggspectation,5009 Westone Dr,Chantilly,VA,20151,(703) 263-7444,503.0,3.5,20.0,38.86957,-77.443993,Fairfax County,US,[0.0]
479,Nancy’s Kitchen,3808 International Dr,Silver Spring,MD,20906,(301) 598-1886,20.0,2.5,20.0,39.103556,-77.075963,Montgomery County,US,[0.0]
480,Smith & Clarkson’s Deli,6030-H Burke Commons Rd,Burke,VA,22015,(703) 543-7701,45.0,3.5,10.0,38.78797,-77.29943,Fairfax County,US,[0.0]
481,Loaves & Leaves,12018 Sunrise Valley Dr,Reston,VA,20191,(703) 391-2500,13.0,3.0,10.0,38.948449,-77.361756,Fairfax County,US,[0.0]
482,Point Chaud Café & Crêpes,1012 14th St NW,Washington,DC,20005,(202) 783-0304,178.0,3.5,10.0,38.903195,-77.032395,District of Columbia,US,[1.5909090909090908]
483,Corner Bakery Cafe,10327 Westlake Dr,Bethesda,MD,20817,(301) 469-8853,75.0,2.5,20.0,39.026569,-77.147715,Montgomery County,US,[0.0]
484,Montrose Deli,6001 Montrose Rd,Rockville,MD,20852,(301) 468-3050,5.0,3.5,,39.053176,-77.12076,Montgomery County,US,[0.0]
485,Liberty Tree,1016 H St NE,Washington,DC,20002,(202) 396-8733,212.0,3.5,20.0,38.90035200000001,-76.992502,District of Columbia,US,[0.0]
486,District Doughnut and Coffee,749 8th St SE,Washington,DC,20003,(202) 750-1955,322.0,4.0,20.0,38.879635,-76.995253,District of Columbia,US,[0.0]
487,Baltimore Coffee & Tea,1110 Town Center Blvd,Odenton,MD,21113,(410) 874-3573,74.0,4.5,10.0,39.088556,-76.709356,Anne Arundel County,US,[0.0]
488,Corner Bakery Cafe,3903-B Fair Ridge Dr,Fairfax,VA,22033,(703) 934-8703,56.0,3.5,20.0,38.873262,-77.37342,Fairfax County,US,[0.0]
489,IHOP,6254 Duke St,Alexandria,VA,22312,(703) 658-2163,56.0,2.5,10.0,38.816715,-77.141217,Alexandria city,US,[0.0]
490,Sora Ethiopian Market,5145-C Duke St,Alexandria,VA,22304,(703) 566-3855,14.0,4.5,20.0,38.812567,-77.12116999999998,Alexandria city,US,[0.0]
491,14 K Restaurant & Lounge,1001 14th St NW,Washington,DC,20005,(202) 218-7575,182.0,3.0,20.0,38.90292,-77.031587,District of Columbia,US,[1.5909090909090908]
492,Tune Inn,331 Pennsylvania Ave SE,Washington,DC,20003,(202) 543-2725,364.0,3.5,10.0,38.886369,-77.00109,District of Columbia,US,[0.0]
493,Baked & Wired,1052 Thomas Jefferson St NW,Washington,DC,20007,(202) 333-2500,2960.0,4.5,20.0,38.903879,-77.060435,District of Columbia,US,[0.0]
494,Teddy & The Bully Bar,1200 19th St NW,Washington,DC,20036,(202) 872-8700,382.0,3.5,30.0,38.906107,-77.043869,District of Columbia,US,[1.5909090909090908]
495,Milk & Honey Cafe,10606 Baltimore Ave,Beltsville,MD,20705,(301) 477-2195,12.0,4.5,20.0,39.029265,-76.916038,Prince George's County,US,[0.0]
496,Mediterranean Cafe,1405 Research Blvd,Rockville,MD,20850,(301) 340-7567,9.0,4.0,10.0,39.091177,-77.17768000000002,Montgomery County,US,[0.0]
497,La Colombe Coffee,924 Rear N St NW,Washington,DC,20001,(202) 289-4850,367.0,4.5,10.0,38.911936,-77.016719,District of Columbia,US,[0.0]
498,Anita’s New Mexico Style Mexican Food,521 E Maple Ave,Vienna,VA,22180,(703) 255-1001,184.0,3.0,20.0,38.894614,-77.27538100000002,Fairfax County,US,[0.0]
499,Sully Cafe,14240 Sullyfield Cir,Chantilly,VA,20151,(703) 968-0010,26.0,4.0,10.0,38.889497,-77.43741999999997,Fairfax County,US,[0.0]
500,Decadence,6204 Georgia Ave NW,Washington,DC,20011,(202) 300-7870,11.0,4.5,20.0,38.965184,-77.027953,District of Columbia,US,[0.0]
501,Sunny’s Grill,1405 Research Blvd,Rockville,MD,20850,(301) 340-7567,2.0,3.5,,39.091177,-77.17768000000002,Montgomery County,US,[0.0]
502,IHOP,8905 Woodyard Rd,Clinton,MD,20735,(301) 868-4356,28.0,2.5,20.0,38.767498,-76.886356,Prince George's County,US,[0.0]
503,Brooklyn Bagel Bakery,2055 Wilson Blvd,Arlington,VA,22201,(703) 243-4442,484.0,4.0,10.0,38.89177,-77.084261,Arlington County,US,[0.0]
504,Bruegger’s Bagels,606 King Street,Alexandria,VA,22314,(703) 683-0080,77.0,3.0,10.0,38.804851,-77.046193,Alexandria city,US,[0.0]
505,Freshii,9613 E Medical Center Dr,Rockville,MD,20850,(240) 328-1073,50.0,3.5,10.0,39.103427,-77.19657099999998,Montgomery County,US,[0.0]
506,DBGB Kitchen and Bar,931 H St NW,Washington,DC,20001,(202) 695-7660,309.0,3.5,30.0,38.899961,-77.02457700000002,District of Columbia,US,[0.0]
507,IHOP,9003 Central Ave,Capitol Heights,MD,20743,(301) 324-9003,60.0,2.5,10.0,38.890998,-76.850165,Prince George's County,US,[0.0]
508,Rhodeside Grill,1836 Wilson Blvd,Arlington,VA,22201,(703) 243-0145,259.0,3.5,20.0,38.893028,-77.08029499999998,Arlington County,US,[0.0]
509,IHOP,9003 Central Ave,Capitol Heights,MD,20743,(301) 324-9003,60.0,2.5,10.0,38.890998,-76.850165,Prince George's County,US,[0.0]
510,Rhodeside Grill,1836 Wilson Blvd,Arlington,VA,22201,(703) 243-0145,259.0,3.5,20.0,38.893028,-77.08029499999998,Arlington County,US,[0.0]
511,Cafe Tu-O-Tu,2816 Pennsylvania Ave NW,Washington,DC,20007,(202) 298-7777,195.0,4.0,10.0,38.904922,-77.057634,District of Columbia,US,[0.0]
512,Coffee Castle,7039 Old Keene Mill Rd,Springfield,VA,22150,,1.0,5.0,,38.777962,-77.186973,Fairfax County,US,[0.0]
513,Mason Dixie Biscuit,1309 5th St NE,Washington,DC,20002,(540) 300-6322,36.0,4.0,10.0,38.908716,-76.99765,District of Columbia,US,[0.0]
514,Rockspring Cafe,6430 Rockledge Dr,Bethesda,MD,20817,(301) 530-7522,3.0,2.5,10.0,39.02518900000001,-77.133431,Montgomery County,US,[0.0]
515,City Diner Restaurant,5616 Leesburg Pike,Falls Church,VA,22041,(703) 671-4108,187.0,4.0,20.0,38.848957,-77.125061,Fairfax County,US,[0.0]
516,Convivial,801 O St NW,Washington,DC,20001,(202) 525-2870,246.0,4.0,20.0,38.908755,-77.023123,District of Columbia,US,[0.0]
517,Freddie’s Beach Bar & Restaurant,555 23rd St S,Arlington,VA,22202,(703) 685-0555,254.0,4.0,20.0,38.853496,-77.054948,Arlington County,US,[0.0]
518,Peppers Taco & Wine Bar,216 Market St W,Gaithersburg,MD,20878,(240) 888-1049,9.0,4.0,10.0,39.121742,-77.235047,Montgomery County,US,[0.0]
519,Galley Cafe,3110 Fairview Park Dr,Falls Church,VA,22042,(703) 560-2800,2.0,3.5,10.0,38.862645,-77.21769599999998,Fairfax County,US,[0.0]
520,The Chesapeake Room,501 8th St SE,Washington,DC,20003,(202) 543-1445,285.0,3.0,20.0,38.882579,-76.995267,District of Columbia,US,[0.0]
521,IHOP,3601 Bladensburg Rd,Brentwood,MD,20722,(301) 779-0838,21.0,2.5,10.0,38.934294,-76.95091500000002,Prince George's County,US,[0.0]
522,Southern Hospitality,1815 Adams Mill Rd NW,Washington,DC,20009,(202) 588-0411,386.0,3.5,20.0,38.923255,-77.042618,District of Columbia,US,[0.0]
523,Booeymonger,3256 Prospect St NW,Washington,DC,20007,(202) 333-4810,173.0,4.0,10.0,38.905881,-77.065022,District of Columbia,US,[0.0]
524,Open City At the National Cathedral,3101 Wisconsin Ave NW,Washington,DC,20015,(202) 965-7670,34.0,4.0,20.0,38.930516,-77.07088,District of Columbia,US,[0.0]
525,The Daily Dish,8301 A Grubb Rd,Silver Spring,MD,20910,(301) 588-6300,130.0,3.5,20.0,38.991846,-77.048767,Montgomery County,US,[0.0]
526,Potomac Village Deli,625 Center Point Way,Gaithersburg,MD,20878,(301) 299-5770,34.0,3.0,20.0,39.121811,-77.235141,Montgomery County,US,[0.0]
527,Driftwood Kitchen,400 H St NE,Washington,DC,20002,(202) 803-2651,174.0,3.5,20.0,38.900355,-77.000571,District of Columbia,US,[0.0]
528,IHOP,7694 Richmond Hwy,Alexandria,VA,22306,(703) 660-6659,50.0,3.0,20.0,38.749797,-77.08418,Fairfax County,US,[0.0]
529,TS Grill,1329 E W Hwy,Silver Spring,MD,20910,(240) 398-3124,11.0,2.5,10.0,38.99159,-77.02993599999998,Montgomery County,US,[0.0]
530,Sculpture Garden Pavilion Cafe,101-199 9th St NW,Washington,DC,20004,(202) 289-3360,90.0,3.5,20.0,38.89207800000001,-77.023962,District of Columbia,US,[0.0]
531,Table Talk Restaurant,1623 Duke St,Alexandria,VA,22314,(703) 548-3989,278.0,3.5,10.0,38.804491,-77.059397,Alexandria city,US,[0.0]
532,Bar Civita,2609 24th St NW,Washington,DC,20008,(202) 588-1211,103.0,4.0,20.0,38.923874,-77.052355,District of Columbia,US,[0.0]
533,Clyde’s of Gallery Place,707 7th St NW,Washington,DC,20001,(202) 349-3700,922.0,3.5,20.0,38.898893,-77.021662,District of Columbia,US,[0.0]
534,Station Kitchen & Cocktails,2015 Massachusetts Ave NW,Washington,DC,20036,(202) 265-1600,42.0,3.5,20.0,38.910725,-77.04569000000002,District of Columbia,US,[0.0]
535,IHOP,9490 Blake Ln,Fairfax,VA,22031,(703) 277-1022,93.0,3.5,10.0,38.867511,-77.271989,Fairfax County,US,[0.0]
536,McLean Family Restaurant,1321 Chain Bridge Rd,McLean,VA,22101,(703) 356-9883,109.0,3.5,20.0,38.93933300000001,-77.174384,Fairfax County,US,[0.0]
537,Tysons Bagel Market,8137 Leesburg Pike,Vienna,VA,22182,(703) 448-0080,172.0,4.0,10.0,38.91552100000001,-77.22769,Fairfax County,US,[0.0]
538,The Pig,1320 14th St NW,Washington,DC,20005,(202) 290-2821,1072.0,4.0,20.0,38.907962,-77.032371,District of Columbia,US,[1.5909090909090908]
539,Cracker Barrel Old Country Store,23030 Indian Creek Dr,Sterling,VA,20166,(703) 464-0044,137.0,3.5,10.0,38.979927,-77.432762,Loudoun County,US,[0.0]
540,Olive’s,1750 Rockville Pike,Rockville,MD,20852,(301) 230-6727,2.0,5.0,,39.061018,-77.122809,Montgomery County,US,[0.0]
541,IHOP,9680 Baltimore Ave,College Park,MD,20740,(301) 982-7400,62.0,2.5,20.0,39.014272,-76.928907,Prince George's County,US,[0.0]
542,Heat Da Spot,3213 Georgia Ave Nw,Washington,DC,20010,(202) 836-4719,42.0,5.0,10.0,38.930467,-77.023229,District of Columbia,US,[0.0]
543,Jazmin Cuisine,7601-F Airpark Rd,Gaithersburg,MD,20879,(301) 208-1444,87.0,4.5,10.0,39.17022100000001,-77.154615,Montgomery County,US,[0.0]
544,Smoke & Barrel,2471 18th St NW,Washington,DC,20009,(202) 319-9353,481.0,3.5,20.0,38.92227800000001,-77.042252,District of Columbia,US,[0.0]
545,Cracker Barrel Old Country Store,3742 Crain Hwy,Waldorf,MD,20602,(301) 638-2570,73.0,2.5,10.0,38.588535,-76.907589,Charles County,US,[0.0]
546,Duke’s Counter,3000 Connecticut Ave NW,Washington,DC,20008,(202) 733-4808,49.0,4.5,20.0,38.929892,-77.055565,District of Columbia,US,[0.0]
547,Occoquan Inn,301 Mill St,Occoquan,VA,22125,(703) 491-1888,45.0,2.5,20.0,38.684335,-77.26017,Prince William County,US,[0.0]
548,The Village Cafe,19230 Montgomery Vlg Ave,Montgomery Village,MD,20886,(301) 840-5668,37.0,3.5,10.0,39.171958,-77.20389300000002,Montgomery County,US,[0.0]
549,Bagel Place of College Park,7423 Baltimore Ave,College Park,MD,20740,(301) 779-3900,181.0,4.0,10.0,38.982066,-76.937699,Prince George's County,US,[0.0]
550,Muze,1330 Maryland Ave SW,Washington,DC,20024,(202) 787-6148,26.0,3.5,30.0,38.883602,-77.030449,District of Columbia,US,[0.0]
551,Vinoteca,1940 11th St NW,Washington,DC,20001,(202) 332-9463,671.0,3.5,20.0,38.91673,-77.027303,District of Columbia,US,[0.0]
552,Democracy Center Cafe,6903 Rockledge Dr,Bethesda,MD,20817,(301) 530-0984,1.0,3.0,,39.028464,-77.13902900000002,Montgomery County,US,[0.0]
553,IHOP,8500 Annapolis Rd,New Carrollton,MD,20784,(301) 429-2088,28.0,2.5,10.0,38.958701,-76.869017,Prince George's County,US,[0.0]
554,The Blue Arbor Cafe,201 Union St,Occoquan,VA,22125,(703) 494-1317,69.0,4.0,20.0,38.683638,-77.26029100000002,Prince William County,US,[0.0]
555,IHOP,7405 Greenbelt Rd,Greenbelt,MD,20770,(301) 486-1234,74.0,2.5,20.0,38.994272,-76.879411,Prince George's County,US,[0.0]
556,Town Hall,2340 Wisconsin Ave NW,Washington,DC,20007,(202) 333-5640,204.0,3.5,20.0,38.920973,-77.072272,District of Columbia,US,[0.0]
557,Boundary Road,414 H St NE,Washington,DC,20002,(202) 450-3265,291.0,4.0,20.0,38.900353,-77.000426,District of Columbia,US,[0.0]
558,Paul,1078 Wisconsin Ave NW,Washington,DC,20007,(202) 524-4630,234.0,3.5,20.0,38.904834,-77.06302099999998,District of Columbia,US,[0.0]
559,Town Hall,2340 Wisconsin Ave NW,Washington,DC,20007,(202) 333-5640,204.0,3.5,20.0,38.920973,-77.072272,District of Columbia,US,[0.0]
560,Boundary Road,414 H St NE,Washington,DC,20002,(202) 450-3265,291.0,4.0,20.0,38.900353,-77.000426,District of Columbia,US,[0.0]
561,Paul,1078 Wisconsin Ave NW,Washington,DC,20007,(202) 524-4630,234.0,3.5,20.0,38.904834,-77.06302099999998,District of Columbia,US,[0.0]
562,Maple Ave Restaurant,147 Maple Ave W,Vienna,VA,22180,(703) 319-2177,521.0,4.0,20.0,38.900525,-77.26687700000002,Fairfax County,US,[0.0]
563,Whitlow’s On Wilson,2854 Wilson Blvd,Arlington,VA,22201,(703) 276-9693,654.0,3.5,20.0,38.88867,-77.09291999999998,Arlington County,US,[0.0]
564,Rise Bakery,2409 18th St NW,Washington,DC,20009,(202) 525-5204,89.0,4.5,10.0,38.920828,-77.041741,District of Columbia,US,[0.0]
565,Woodward Table,1426 H St NW,Washington,DC,20005,(202) 347-5353,364.0,3.5,20.0,38.900051,-77.032302,District of Columbia,US,[1.5909090909090908]
566,The Arsenal At Bluejacket,300 Tingey Street SE,Washington,DC,20003,(202) 524-4862,40.0,3.5,20.0,38.875217,-77.001273,District of Columbia,US,[0.0]
567,Eggspectation,6010 University Blvd,Ellicott City,MD,21043,(410) 750-3115,469.0,3.5,20.0,39.209175,-76.797937,Howard County,US,[0.0]
568,The Fourth Estate,529 14th St NW,Washington,DC,20045,(202) 662-7638,62.0,3.5,30.0,38.897019,-77.031547,District of Columbia,US,[1.5909090909090908]
569,Sankofa Video Books & Cafe,2714 Georgia Ave NW,Washington,DC,20001,(202) 332-1084,97.0,4.5,10.0,38.925563,-77.023092,District of Columbia,US,[0.0]
570,Sticky Fingers Sweets & Eats,1370 Park Rd NW,Washington,DC,20010,(202) 299-9700,751.0,4.0,10.0,38.930469,-77.03173699999998,District of Columbia,US,[0.0]
571,Neal’s Bagels,12141 Darnestown Rd,Gaithersburg,MD,20878,(301) 216-0070,61.0,3.5,10.0,39.117467,-77.250691,Montgomery County,US,[0.0]
572,Trattoria Villagio,7145 Main St,Clifton,VA,20124,(703) 543-2030,249.0,4.0,20.0,38.780515,-77.386746,Fairfax County,US,[0.0]
573,Capitol City Brewing Company,1100 New York Ave NW,Washington,DC,20005,(202) 628-2222,743.0,3.5,20.0,38.900669,-77.02744399999997,District of Columbia,US,[1.5909090909090908]
574,Old Engine 12 Restaurant,1626 N Capitol St NW,Washington,DC,20002,(202) 299-9128,169.0,3.5,20.0,38.912012,-77.009431,District of Columbia,US,[0.0]
575,Expo Cafe,4265A Brookfield Corporate Dr,Chantilly,VA,20151,(703) 818-3059,15.0,4.0,10.0,38.889609,-77.438354,Fairfax County,US,[0.0]
576,District Commons,2200 Pennsylvania Ave NW,Washington,DC,20037,(202) 587-8277,657.0,3.5,20.0,38.901937,-77.049274,District of Columbia,US,[1.5909090909090908]
577,Silver Diner,12276 Rockville Pike,Rockville,MD,20852,(301) 770-2828,467.0,4.0,20.0,39.057468,-77.12040400000002,Montgomery County,US,[0.0]
578,Aboil Cafe,5503 Georgia Ave,Washington,DC,20011,(202) 812-7808,23.0,5.0,10.0,38.956431,-77.02785,District of Columbia,US,[0.0]
579,The Wonderland Ballroom,1101 Kenyon St NW,Washington,DC,20009,(202) 232-5263,452.0,3.5,20.0,38.929931,-77.027984,District of Columbia,US,[0.0]
580,IHOP,6655 Arlington Blvd,Falls Church,VA,22042,(703) 237-5191,56.0,3.0,10.0,38.869341,-77.17388299999998,Fairfax County,US,[0.0]
581,Bagels ‘n Grinds,7791 Arundel Mills Blvd,Hanover,MD,21076,(410) 799-8333,190.0,3.5,10.0,39.161876,-76.722532,Anne Arundel County,US,[0.0]
582,Daily Grill,1310 Wisconsin Avenue,Washington,DC,20007,(202) 337-4900,122.0,3.5,20.0,38.907206,-77.063563,District of Columbia,US,[0.0]
583,Mimi’s Cafe,21015 Dulles Town Cir,Sterling,VA,20166,(571) 434-0162,167.0,3.0,20.0,39.031082,-77.427236,Loudoun County,US,[0.0]
584,Astro Doughnuts & Fried Chicken,1308 G St NW,Washington,DC,20005,(202) 809-5565,636.0,3.5,10.0,38.898112,-77.030462,District of Columbia,US,[1.5909090909090908]
585,IHOP,2990 Donnell Dr,Forestville,MD,20747,(301) 967-9300,25.0,2.0,20.0,38.84893,-76.884939,Prince George's County,US,[0.0]
586,IHOP,2526 University Blvd W,Silver Spring,MD,20902,(301) 942-2323,54.0,2.5,20.0,39.040845,-77.05273000000003,Montgomery County,US,[0.0]
587,Duplex Diner,2004 18th St NW,Washington,DC,20009,(202) 265-7828,96.0,3.5,20.0,38.917216,-77.041878,District of Columbia,US,[0.0]
588,Orange Anchor,3050 K St NW,Washington,DC,20007,(202) 802-9990,145.0,3.0,20.0,38.901944,-77.060918,District of Columbia,US,[0.0]
589,Rudy’s Mediterranean Grill,7185 Columbia Gateway Dr,Columbia,MD,21046,(410) 290-2004,182.0,4.0,20.0,39.183099,-76.80504499999998,Howard County,US,[0.0]
590,Scion,1200 E W Hwy,Silver Spring,MD,20910,(301) 585-8878,212.0,3.5,20.0,38.990086,-77.028944,Montgomery County,US,[0.0]
591,Ben’s Next Door,1211 U St NW,Washington,DC,20009,(202) 667-8880,522.0,3.5,20.0,38.917321,-77.028693,District of Columbia,US,[0.0]
592,Nellie’s Sports Bar,900 U St NW,Washington,DC,20001,(202) 332-6355,371.0,4.0,20.0,38.91683,-77.024222,District of Columbia,US,[0.0]
593,Rose’s Luxury,717 8th St SE,Washington,DC,20003,(202) 580-8889,1258.0,4.5,30.0,38.880642,-76.995281,District of Columbia,US,[0.0]
594,La Madeleine French Bakery & Cafe,6211 Columbia Crossing Dr,Columbia,MD,21045,(410) 872-4900,143.0,3.5,20.0,39.196733,-76.815846,Howard County,US,[0.0]
595,The Bean Counter,1665 Wisconsin Ave NW,Washington,DC,20007,(202) 625-1665,74.0,4.0,10.0,38.912093,-77.065636,District of Columbia,US,[0.0]
596,NY Deli,9350 Snowden River Pkwy,Columbia,MD,21045,(410) 290-3773,37.0,3.5,10.0,39.176478,-76.83584300000003,Howard County,US,[0.0]
597,IHOP,6206 Interparcel Rd,Alexandria,VA,22315,(703) 971-0051,45.0,3.0,10.0,38.763862,-77.153015,Fairfax County,US,[0.0]
598,Bread & Chocolate,5542 Connecticut Ave NW,Washington,DC,20015,(202) 966-7413,76.0,3.0,20.0,38.964488,-77.075738,District of Columbia,US,[0.0]
599,Garden Cafe,2117 E St NW,Washington,DC,20037,(202) 861-0331,20.0,3.5,20.0,38.896168,-77.046887,District of Columbia,US,[1.5909090909090908]
600,Soho Cafe & Market,1301 K St NW,Washington,DC,20005,(202) 842-2400,57.0,3.5,10.0,38.902926,-77.030521,District of Columbia,US,[1.5909090909090908]
601,Satellite Room,2047 9th St NW,Washington,DC,20001,(202) 506-2496,214.0,3.0,20.0,38.918129,-77.02364,District of Columbia,US,[0.0]
602,Smokey’s,4714 14th St NW,Washington,DC,20011,(202) 723-8960,18.0,4.0,10.0,38.94768,-77.033006,District of Columbia,US,[0.0]
603,L’Enfant Cafe & Bar,2000 18th St NW,Washington,DC,20009,(202) 319-1800,330.0,3.0,20.0,38.917122,-77.041898,District of Columbia,US,[0.0]
604,George Martin’s Grillfire,7793-A Arundel Mills Blvd,Hanover,MD,21076,(410) 799-2883,208.0,3.5,20.0,39.161876,-76.722532,Anne Arundel County,US,[0.0]
605,Cafe Aria,1917 F St NW,Washington,DC,20006,(202) 589-0899,34.0,3.5,10.0,38.897556,-77.043888,District of Columbia,US,[1.5909090909090908]
606,A-Town Bar & Grill,4100 N Fairfax Dr,Arlington,VA,22203,(703) 528-1110,409.0,3.5,20.0,38.881876,-77.10967099999998,Arlington County,US,[0.0]
607,Chads Friendship Heights,5247 Wisconsin Ave NW,Washington,DC,20015,(202) 362-8040,200.0,3.5,20.0,38.958758,-77.08436800000001,District of Columbia,US,[0.0]
608,Cafe Deluxe,1800 International Dr W,McLean,VA,22102,(703) 761-0600,302.0,3.5,20.0,38.918793,-77.226333,Fairfax County,US,[0.0]
609,Little Red Fox,5035 Connecticut Ave,Washington,DC,20008,(202) 248-6346,142.0,4.0,20.0,38.95588,-77.069928,District of Columbia,US,[0.0]
610,St. Arnold’s On Jefferson,1827 Jefferson Pl NW,Washington,DC,20036,(202) 833-1321,575.0,4.0,20.0,38.906642,-77.042783,District of Columbia,US,[1.5909090909090908]
611,"Anita’s New Mexico Style Mexican Food, Inc",10880 Fairfax Blvd,Fairfax,VA,22030,(703) 385-2965,126.0,3.0,10.0,38.854339,-77.319681,Fairfax city,US,[0.0]
612,Bluejacket,300 Tingey St SE,Washington,DC,20003,(202) 524-4862,677.0,3.5,20.0,38.875217,-77.001273,District of Columbia,US,[0.0]
613,Willy’s Kitchen,7271 Baltimore Annapolis Blvd,Glen Burnie,MD,21061,(410) 761-8001,260.0,4.5,20.0,39.179936,-76.63861800000002,Anne Arundel County,US,[0.0]
614,IHOP,775 Rockville Pike,Rockville,MD,20852,(301) 738-1894,59.0,3.0,10.0,39.064013,-77.12631400000002,Montgomery County,US,[0.0]
615,nopa Kitchen + Bar,800 F St NW,Washington,DC,20004,(202) 347-4667,334.0,4.0,30.0,38.896979,-77.02328399999998,District of Columbia,US,[0.0]
616,DC Reynolds,3628 Georgia Ave NW,Washington,DC,20010,(202) 506-7178,204.0,4.0,20.0,38.934873,-77.024335,District of Columbia,US,[0.0]
617,Sunrise Cafe - sandwich and salad bar,12355 Sunrise Valley Dr,Reston,VA,20191,(703) 716-1154,6.0,3.0,10.0,38.950497,-77.372038,Fairfax County,US,[0.0]
618,Café Sorriso,2311 Calvert St NW,Washington,DC,20008,(202) 803-2872,83.0,4.0,20.0,38.923781,-77.051009,District of Columbia,US,[0.0]
619,nopa Kitchen + Bar,800 F St NW,Washington,DC,20004,(202) 347-4667,334.0,4.0,30.0,38.896979,-77.02328399999998,District of Columbia,US,[0.0]
620,DC Reynolds,3628 Georgia Ave NW,Washington,DC,20010,(202) 506-7178,204.0,4.0,20.0,38.934873,-77.024335,District of Columbia,US,[0.0]
621,Sunrise Cafe - sandwich and salad bar,12355 Sunrise Valley Dr,Reston,VA,20191,(703) 716-1154,6.0,3.0,10.0,38.950497,-77.372038,Fairfax County,US,[0.0]
622,Café Sorriso,2311 Calvert St NW,Washington,DC,20008,(202) 803-2872,83.0,4.0,20.0,38.923781,-77.051009,District of Columbia,US,[0.0]
623,Dandy Restaurant Cruises,0 Prince St,Alexandria,VA,22314,(703) 683-6076,59.0,3.0,40.0,38.804222,-77.048355,Alexandria city,US,[0.0]
624,The Secret Garden Cafe,404 Mill St,Occoquan,VA,22192,(703) 494-2848,354.0,4.5,20.0,38.684825,-77.26168,Prince William County,US,[0.0]
625,Vendetta,1212 H St NE,Washington,DC,20002,(202) 399-3201,127.0,3.0,20.0,38.90035,-76.99005600000002,District of Columbia,US,[0.0]
626,The Prospect,1214 U St NW,Washington,DC,20009,(202) 450-4130,126.0,4.0,20.0,38.91679600000001,-77.028643,District of Columbia,US,[0.0]
627,Chef Geoff’s,3201 New Mexico Ave NW,Washington,DC,20016,(202) 237-7800,252.0,3.5,20.0,38.933099,-77.084745,District of Columbia,US,[0.0]
628,Mimi’s Cafe,8250 Gateway Overlook Dr,Elkridge,MD,21075,(443) 285-0228,214.0,2.5,20.0,39.186218,-76.795855,Howard County,US,[0.0]
629,Capital Teas,"429 L'Enfant Plaza West, SW",Washington,DC,20024,(202) 488-8327,1.0,4.0,20.0,38.88384,-77.02516999999997,District of Columbia,US,[0.0]
630,Smith Commons,1245 H St NE,Washington,DC,20002,(202) 396-0038,472.0,3.5,20.0,38.90005,-76.989565,District of Columbia,US,[0.0]
631,Washington Pour Bar,2605 S Clark St,Arlington,VA,22202,(571) 350-9008,5.0,1.5,20.0,38.848106,-77.05201600000002,Arlington County,US,[0.0]
632,Songbyrd Record Cafe,2477 18th St NW,Washington,DC,20009,(202) 450-2917,85.0,4.0,20.0,38.922431,-77.042343,District of Columbia,US,[0.0]
633,King Street Cafe,1018 King St,Alexandria,VA,22314,(703) 549-3717,71.0,4.0,10.0,38.805477,-77.05098199999998,Alexandria city,US,[0.0]
634,Patisserie Poupon,1645 Wisconsin Ave Nw,Washington,DC,20007,(202) 342-3248,248.0,4.0,20.0,38.911603,-77.065309,District of Columbia,US,[0.0]
635,Samantha’s Diner and Bakery,2503 University Blvd W,Silver Spring,MD,20902,(301) 933-0998,14.0,2.0,10.0,39.041641,-77.051773,Montgomery County,US,[0.0]
636,Uprising Muffin Company,1817 7th St NW,Washington,DC,20001,(202) 290-1196,225.0,4.5,10.0,38.914727,-77.021718,District of Columbia,US,[0.0]
637,Ted’s Bulletin - Downtown Crown,220 Ellington Blvd,Gaithersburg,MD,20878,(301) 990-0600,268.0,3.5,20.0,39.115209,-77.25161,Montgomery County,US,[0.0]
638,Roberts Restaurant,2500 Calvert St NW,Washington,DC,20008,(202) 756-5300,37.0,3.5,20.0,38.922626,-77.053664,District of Columbia,US,[0.0]
639,The Grill at Quarterfield Station,7704D Quarterfield Rd,Glen Burnie,MD,21061,(410) 766-6446,190.0,4.0,20.0,39.148419,-76.64,Anne Arundel County,US,[0.0]
640,Union Pub,201 Massachusetts Ave NE,Washington,DC,20002,(202) 546-7200,233.0,3.0,20.0,38.894619,-77.00288,District of Columbia,US,[0.0]
641,Petits Plats,2653 Connecticut Ave NW,Washington,DC,20008,(202) 518-0018,156.0,3.5,20.0,38.925094,-77.052058,District of Columbia,US,[0.0]
642,Fresh Start Cafe,2250 Corporate Park Dr,Herndon,VA,20171,(703) 437-0022,4.0,3.5,10.0,38.953131,-77.396253,Fairfax County,US,[0.0]
643,The Partisan,709 D St NW,Washington,DC,20004,(202) 524-5322,289.0,4.0,30.0,38.894993,-77.022472,District of Columbia,US,[0.0]
644,Rustico,827 Slaters Ln,Alexandria,VA,22314,(703) 224-5051,604.0,3.5,20.0,38.821596,-77.04726,Alexandria city,US,[0.0]
645,Breadline,1751 Pennsylvania Ave NW,Washington,DC,20006,(202) 822-8900,202.0,3.5,10.0,38.899683,-77.041072,District of Columbia,US,[1.5909090909090908]
646,Nazret Express Eatery,3821 D S George Dr,Falls Church,VA,22041,(703) 405-9629,1.0,5.0,,38.847972,-77.141481,Falls Church city,US,[0.0]
647,Blue 44 Restaurant & Bar,5507 Connecticut Ave NW,Washington,DC,20015,(202) 362-2583,162.0,4.0,20.0,38.963344,-77.074299,District of Columbia,US,[0.0]
648,1789 Restaurant,1226 36th St NW,Washington,DC,20007,(202) 965-1789,540.0,4.0,40.0,38.906076,-77.070435,District of Columbia,US,[0.0]
649,The Pug,1234 H St NE,Washington,DC,20002,(202) 555-1212,205.0,4.0,10.0,38.90035,-76.98971800000002,District of Columbia,US,[0.0]
650,Chantilly’s Restaurant,45425 Holiday Dr,Sterling,VA,20166,(703) 480-7411,1.0,5.0,20.0,38.984595,-77.428311,Loudoun County,US,[0.0]
651,District Kitchen,2606 Connecticut Ave NW,Washington,DC,20008,(202) 238-9408,239.0,3.5,20.0,38.923889,-77.052122,District of Columbia,US,[0.0]
652,Salt & Pepper,5125 Macarthur Blvd,Washington,DC,20016,(202) 364-5125,63.0,3.5,20.0,38.925618,-77.101776,District of Columbia,US,[0.0]
653,Carvings Cafe,702 King Farm Blvd,Rockville,MD,20850,(301) 355-5353,12.0,3.0,20.0,39.112025,-77.176785,Montgomery County,US,[0.0]
654,Denny’s,10473 Lee Hwy,Fairfax,VA,22030,(703) 273-8133,85.0,3.5,10.0,38.858418,-77.306002,Fairfax city,US,[0.0]
655,William Jeffrey’s Tavern,2301 Columbia Pike,Arlington,VA,22204,(703) 746-6333,286.0,3.5,20.0,38.863841,-77.082621,Arlington County,US,[0.0]
656,Justin’s Cafe,1025 1st St SE,Washington,DC,20003,(202) 652-1009,253.0,3.5,20.0,38.877783,-77.006189,District of Columbia,US,[0.0]
657,Three Fifty Bakery and Coffee Bar,1926 17th St NW,Washington,DC,20009,(202) 629-1022,138.0,4.5,10.0,38.91663,-77.038756,District of Columbia,US,[0.0]
658,1905 Restaurant,1905 9th St NW,Washington,DC,20001,(202) 332-1905,271.0,3.5,20.0,38.915939,-77.02373100000001,District of Columbia,US,[0.0]
659,Denny’s,7214 Richmond Hwy,Alexandria,VA,22306,(703) 765-0171,57.0,2.5,10.0,38.760255,-77.08453100000001,Fairfax County,US,[0.0]
660,10 Thomas Restaurant,10 Thomas Cir NW,Washington,DC,20005,(202) 842-1300,21.0,3.5,20.0,38.906252,-77.030974,District of Columbia,US,[1.5909090909090908]
661,Cafe Saint-Ex,1847 14th St NW,Washington,DC,20009,(202) 265-7839,507.0,3.5,20.0,38.915431,-77.031733,District of Columbia,US,[0.0]
662,Edgar Bar & Kitchen,1127 Connecticut Ave NW,Washington,DC,20036,(202) 347-2233,109.0,3.0,20.0,38.904442,-77.039467,District of Columbia,US,[1.5909090909090908]
663,Swampoodle,5501 14th St NW,Washington,DC,20011,(202) 450-3511,38.0,3.5,20.0,38.956699,-77.03322,District of Columbia,US,[0.0]
664,Bob Evans,10433 White Granite Dr,Oakton,VA,22124,(703) 591-7550,48.0,3.0,10.0,38.874295,-77.30615300000002,Fairfax County,US,[0.0]
665,P J Clarke’s,1600 K St NW,Washington,DC,20006,(202) 463-6610,320.0,3.0,20.0,38.902232,-77.036946,District of Columbia,US,[1.5909090909090908]
666,Renata’s Tasty Bites,9350-G Snowden River Pkwy,Columbia,MD,21045,(443) 864-5830,36.0,4.5,10.0,39.176478,-76.83584300000003,Howard County,US,[0.0]
667,IHOP,6417 Shiplett Blvd,Burke,VA,22015,(703) 455-4891,81.0,2.5,10.0,38.776866,-77.266012,Fairfax County,US,[0.0]
668,Smith Public Trust,3514 12th St NE,Washington,DC,20017,(202) 733-5834,152.0,4.0,20.0,38.932988,-76.991203,District of Columbia,US,[0.0]
669,P J Clarke’s,1600 K St NW,Washington,DC,20006,(202) 463-6610,320.0,3.0,20.0,38.902232,-77.036946,District of Columbia,US,[1.5909090909090908]
670,Renata’s Tasty Bites,9350-G Snowden River Pkwy,Columbia,MD,21045,(443) 864-5830,36.0,4.5,10.0,39.176478,-76.83584300000003,Howard County,US,[0.0]
671,IHOP,6417 Shiplett Blvd,Burke,VA,22015,(703) 455-4891,81.0,2.5,10.0,38.776866,-77.266012,Fairfax County,US,[0.0]
672,Smith Public Trust,3514 12th St NE,Washington,DC,20017,(202) 733-5834,152.0,4.0,20.0,38.932988,-76.991203,District of Columbia,US,[0.0]
673,Elkridge Deli Cafe,6325 Washington Blvd,Elkridge,MD,21075,(410) 796-1095,23.0,4.5,10.0,39.206007,-76.728282,Howard County,US,[0.0]
674,Ripple,3417 Connecticut Ave NW,Washington,DC,20008,(202) 244-7995,357.0,3.5,30.0,38.934967,-77.057668,District of Columbia,US,[0.0]
675,Young’s Deli,22636 Glenn Dr,Sterling,VA,20164,(703) 481-9114,14.0,4.0,10.0,38.990718,-77.423963,Loudoun County,US,[0.0]
676,Bar Dupont,1500 New Hampshire Ave NW,Washington,DC,20036,(202) 797-0169,277.0,3.5,20.0,38.91047,-77.043093,District of Columbia,US,[0.0]
677,Tropical Smoothie Cafe’,2389 Brandermill Blvd,Gambrills,MD,21054,(410) 721-5800,32.0,4.5,10.0,39.034257,-76.683386,Anne Arundel County,US,[0.0]
678,Artie’s,3260 Old Lee Hwy,Fairfax,VA,22030,(703) 273-7600,508.0,4.0,20.0,38.853231,-77.305097,Fairfax city,US,[0.0]
679,Bakers & Baristas,501 7th St NW,Washington,DC,20004,(202) 347-7893,212.0,4.0,20.0,38.896269,-77.021723,District of Columbia,US,[0.0]
680,Ben’s Chili Bowl,1213 U St NW,Washington,DC,20009,(202) 667-0909,3270.0,3.5,10.0,38.917265,-77.028775,District of Columbia,US,[0.0]
681,Water & Wall,3811 N Fairfax Dr,Arlington,VA,22203,(703) 294-4949,300.0,4.0,20.0,38.882727,-77.10586500000002,Arlington County,US,[0.0]
682,Amuse,1121 N 19th St,Arlington,VA,22209,(703) 351-1211,64.0,3.0,20.0,38.895023,-77.075463,Arlington County,US,[0.0]
683,Stoney’s on L,2101 L St NW,Washington,DC,20037,(202) 721-0019,126.0,4.0,20.0,38.904003,-77.04688,District of Columbia,US,[1.5909090909090908]
684,Coffy Cafe,3310 14th St NW,Washington,DC,20010,(202) 588-5660,183.0,4.0,10.0,38.93065900000001,-77.032964,District of Columbia,US,[0.0]
685,Bob Evans Restaurant,3361 Corridor Marketplace,Laurel,MD,20724,(301) 362-9140,48.0,2.5,20.0,39.097243,-76.805735,Anne Arundel County,US,[0.0]
686,Firehook Bakery,3411 Connecticut Ave NW,Washington,DC,20008,(888) 580-0745,170.0,3.0,10.0,38.934837,-77.05766,District of Columbia,US,[0.0]
687,Infuse Restaurant and Lounge,6339 Allentown Rd,Temple Hills,MD,20748,(301) 449-9000,69.0,3.5,20.0,38.802314,-76.90916700000002,Prince George's County,US,[0.0]
688,Le Caprice DC,3460 14th St NW,Washington,DC,20010,(202) 290-3109,211.0,3.5,10.0,38.932907,-77.033014,District of Columbia,US,[0.0]
689,Big Chair Coffee & Grill,2122 Martin Luther King Jr Ave SE,Washington,DC,20020,(202) 678-3738,53.0,3.5,10.0,38.865061,-76.98947199999998,District of Columbia,US,[0.0]
690,Cosi,1333 H St NW,Washington,DC,20005,(202) 289-5888,47.0,2.5,20.0,38.900357,-77.03079,District of Columbia,US,[1.5909090909090908]
691,South Block,3011 N 11th St,Arlington,VA,22201,(703) 465-8423,251.0,4.0,20.0,38.886309,-77.09406899999998,Arlington County,US,[0.0]
692,College Park Diner,9206 Baltimore Ave,College Park,MD,20740,(301) 441-8888,172.0,4.0,10.0,39.005958,-76.930193,Prince George's County,US,[0.0]
693,Harvest Plates & Pints,2 Montgomery Village Ave,Gaithersburg,MD,20879,(301) 948-8900,7.0,3.0,20.0,39.153605,-77.211522,Montgomery County,US,[0.0]
694,Medium Rare,515 8th St SE,Washington,DC,20003,(202) 601-7136,386.0,4.0,20.0,38.882226,-76.995334,District of Columbia,US,[0.0]
695,True Food Kitchen,2910 District Ave,Fairfax,VA,22031,(571) 326-1616,691.0,4.0,20.0,38.872913,-77.23015699999998,Fairfax County,US,[0.0]
696,Provision No 14,2100 14th St NW,Washington,DC,20009,(202) 827-4530,278.0,3.5,20.0,38.918259,-77.03225400000002,District of Columbia,US,[0.0]
697,PAUL Columbia Square,555 13th Street NW,Washington,DC,20004,(202) 347-1606,31.0,3.0,20.0,38.896997,-77.029354,District of Columbia,US,[1.5909090909090908]
698,Corner Bakery Cafe,500 N Capitol St NW,Washington,DC,20001,(202) 627-3139,63.0,3.0,10.0,38.896345,-77.00297900000002,District of Columbia,US,[0.0]
699,Article One - American Grill,400 New Jersey Ave NW,Washington,DC,20001,(202) 719-8478,56.0,3.5,20.0,38.895368,-77.011703,District of Columbia,US,[0.0]
700,Brookland Grill,3528 12th St NE,Washington,DC,20017,(202) 526-7419,43.0,3.5,10.0,38.933285,-76.991247,District of Columbia,US,[0.0]
701,Tastee Diner,7731 Woodmont Ave,Bethesda,MD,20814,(301) 652-3970,252.0,3.5,10.0,38.988042,-77.095725,Montgomery County,US,[0.0]
702,Gallery Cafe,9711 Washingtonian Blvd,Gaithersburg,MD,20878,(301) 330-1717,,,,39.112139,-77.191272,Montgomery County,US,[0.0]
703,America Eats Tavern,1700 Tysons Blvd,McLean,VA,22102,(703) 744-3999,182.0,3.5,30.0,38.924345,-77.22369300000003,Fairfax County,US,[0.0]
704,Degrees,3100 S St NW,Washington,DC,20007,(202) 912-4100,45.0,3.5,30.0,38.914675,-77.071152,District of Columbia,US,[0.0]
705,Anita’s New Mexico Style Mexican Food,13921 Lee Jackson Memorial Hwy,Chantilly,VA,20151,(703) 378-1717,144.0,3.0,10.0,38.893501,-77.430713,Fairfax County,US,[0.0]
706,The Grill Room,1050 31st St NW,Washington,DC,20007,(202) 617-2424,66.0,3.5,30.0,38.903988,-77.061456,District of Columbia,US,[0.0]
707,Penn Commons,700 6th St NW,Washington,DC,20001,(202) 905-2999,192.0,3.5,20.0,38.898934,-77.02018000000002,District of Columbia,US,[0.0]
708,Choices By Shawn,3950 Chain Bridge Rd,Fairfax,VA,22030,(703) 385-5433,112.0,3.5,20.0,38.847337,-77.306498,Fairfax city,US,[0.0]
709,IHOP,7784 Gunston Plaza Dr,Lorton,VA,22079,(703) 339-1168,65.0,2.5,20.0,38.703294,-77.208601,Fairfax County,US,[0.0]
